order_id,customer_id,date,nearest_warehouse,shopping_cart,order_price,delivery_charges,customer_lat,customer_long,coupon_discount,order_total,season,is_expedited_delivery,distance_to_nearest_warehouse,latest_customer_review,is_happy_customer
ORD348366,ID0060088408,2019-11-12,Nickolson,"[('Olivia x460', 2), ('Thunder line', 1)]",4630,156.73499999999999,-37.819338,144.9836948,10,4323.735,Spring,True,1.2465,five stars love the phone it was flawless,True
ORD131648,ID3529934922,2019-11-05,Thompson,"[('pearTV', 2), ('Thunder line', 2)]",16980,86.6,-37.8100391,144.9047525,0,17066.6,Spring,False,3.733,one star junk period,False
ORD455400,ID6167417948,2019-11-08,Nickolson,"[('Thunder line', 2), ('Universe Note', 2)]",11260,84.62,-37.8141454,144.963143,15,9655.62,Spring,True,0.7503,wrong phone i ordered a white 128gb phone and got a black 64 gb phone,False
ORD127716,ID2392803738,2019-05-22,Nickolson,"[('iAssist Line', 2), ('pearTV', 1)]",10760,33.895,-37.8099693,144.9785167,0,10793.895,Autumn,False,1.2424,"like new i bought this renewed but was very pleasantly surprised that it looks brand new. no scratches, mars, or imperfections of any kind. no problem authorizing it with tradfone. i bought this to replace a olivia j7 and wish i had done it years ago. i luv my pixel ii !",True
ORD315358,ID0589420528,2019-12-25,Nickolson,"[('Universe Note', 1), ('Alcon 10', 1), ('Olivia x460', 2), ('iAssist Line', 1)]",17075,74.44,-37.8096936,144.9725985,5,16295.69,Summer,False,1.0265,bueno like,True
ORD263723,ID0140980391,2019-07-06,Nickolson,"[('Lucent 330S', 2), ('Olivia x460', 1), ('iAssist Line', 2)]",8135,57.78,-37.79878660000001,144.9688961,5,7786.03,Winter,False,2.2058,no funciona el equipo no funciona en ecuador a pesar de que los comentarios responde que si funciona,False
ORD093185,ID0634785679,2019-09-17,Thompson,"[('Candle Inferno', 1), ('Toshika 750', 2)]",9070,58.93,-37.8139995,144.9396713,5,8675.43,Spring,False,0.6671,"wrong model sent im sorry but the item i recieved was not the exact model. instead it is ""xperia x compact"".",False
ORD094522,ID2640755142,2019-07-11,Thompson,"[('Alcon 10', 1), ('Toshika 750', 2)]",17590,64.99,-37.803438,144.9534492,25,13257.49,Winter,True,1.1712,one star it is a decent phone but not worth 1500 dollars....returned to digico.,False
ORD060430,ID0634784174,2019-11-01,Thompson,"[('Alcon 10', 1), ('iStream', 2), ('Thunder line', 2)]",13610,50.845,-37.8161613,144.9390294,0,13660.845,Spring,True,0.8066,five stars very good,True
ORD188146,ID1458418002,2019-06-16,Bakers,"[('Candle Inferno', 1), ('Universe Note', 2)]",7330,34.465,-37.8197026,145.0100131,25,5531.965,Winter,False,1.6903,happy with phone. got this phone for my birthday. love it. battery lasts for a long time.,True
ORD442854,ID0650272246,2019-05-03,Bakers,"[('Olivia x460', 2), ('Alcon 10', 2), ('iStream', 1)]",20500,52.24,-37.8127158,144.98161069999995,5,19527.24,Autumn,False,1.2356,don't bother buying refurbished worst phone i have had in 15 years do not bother buying this phone refurbished. battery lasts just a few hours. the headphone jack does not work and it takes forever for the bluetooth to connect to a phone.,False
ORD177361,ID6226013492,2019-04-05,Bakers,"[('iAssist Line', 1), ('pearTV', 2)]",14845,68.51,-37.8173222,145.0040415,25,11202.26,Autumn,False,1.1248,battery life is great. battery life is great.,True
ORD442699,ID0356092328,2019-07-18,Bakers,"[('Universe Note', 1), ('Thunder line', 1)]",5630,67.23,-37.8189277,144.998659,5,5415.73,Winter,False,1.0389,five stars great camera and mapping system.,True
ORD465341,ID2555136927,2019-03-22,Thompson,"[('Toshika 750', 2), ('Candle Inferno', 2)]",9500,68.02,-37.8001434,144.95028369999997,25,7193.02,Autumn,False,1.4232,"great buy!! great purchase! i was hesitant with it being refurbished, but was pleasantly surprised. great condition. great battery life. i have already recommended to several friends.",True
ORD045941,ID1327054088,2019-05-05,Nickolson,"[('Olivia x460', 2), ('iAssist Line', 1), ('Universe Note', 1), ('pearTV', 2)]",20745,80.03,-37.81351179999999,144.9651816,25,15638.78,Autumn,True,0.684,liked 100%,True
ORD050731,ID0260906808,2019-01-30,Bakers,"[('Thunder line', 2), ('iAssist Line', 1), ('Lucent 330S', 1), ('Alcon 10', 1)]",16765,84.05,-37.8212383,145.011546,0,16849.05,Summer,False,1.9038,"great for airline flights, viewing offline digico or istream shows and reading books. video quality fine for personal viewing.",True
ORD127980,ID5668009829,2019-06-20,Bakers,"[('Toshika 750', 1), ('Universe Note', 1), ('Olivia x460', 1)]",8995,52.85,-37.8106139,145.0104371,5,8598.1,Winter,False,1.339,please contact me awfull the cell phone have many problems. i need a refund of my money.,False
ORD041239,ID6167489466,2019-12-08,Nickolson,"[('Universe Note', 1), ('Thunder line', 2), ('Alcon 10', 1), ('Toshika 750', 2)]",25400,93.34,-37.8158592,144.96125940000005,5,24223.34,Summer,True,0.7902,good as i expected,True
ORD495652,ID0076459536,2019-01-08,Thompson,"[('Olivia x460', 2), ('Thunder line', 1), ('iStream', 2)]",4930,110.42,-37.791144,144.9368632,15,4300.92,Summer,True,2.5592,five stars very happy with product and seller.,True
ORD475400,ID1668523264,2019-08-11,Nickolson,"[('Candle Inferno', 1), ('iAssist Line', 2)]",4880,73.66499999999999,-37.8208834,144.9624074,10,4465.665,Winter,False,0.6779,one star great product but the pear headphones were not included and the seller has ignored my emails.,False
ORD215256,ID3293342999,2019-01-09,Nickolson,"[('Olivia x460', 2), ('iAssist Line', 2), ('pearTV', 2)]",19520,97.43,-37.8238715,144.9810776,15,16689.43,Summer,True,1.1715,great value best purchase this year!,True
ORD330874,ID0844489347,2019-11-09,Thompson,"[('iAssist Line', 2), ('Lucent 330S', 2)]",6910,102.68,-37.8207969,144.94801669999995,10,6321.68,Spring,True,0.9081,"value, great camera very happy with this phone. my only complaint is the fingerprint can be a little ""touchy"" tho face recognition works amazing!! ver good value compared to olivia",True
ORD218987,ID0123349509,2019-03-28,Thompson,"[('iStream', 2), ('Lucent 330S', 2), ('Thunder line', 1)]",4940,55.12,-37.7993535,144.92775580000003,10,4501.12,Autumn,False,2.2547,not compatible with boost! the product can not be connected to boostmobile!,False
ORD398183,ID2776391626,2019-09-05,Nickolson,"[('Lucent 330S', 1), ('Alcon 10', 2), ('Universe Note', 1), ('Toshika 750', 2)]",31220,102.49,-37.8109711,144.9631023,10,28200.49,Spring,True,1.0207,"so happy i got the s5 so happy i got the s5 !!! it is quick, has great security features, thin, big screen, absolutely no issues at all !!! love it !!!",True
ORD478483,ID0245807247,2019-11-10,Thompson,"[('Alcon 10', 1), ('iAssist Line', 1), ('Thunder line', 2)]",15535,84.85,-37.7994363,144.95915549999995,0,15619.85,Spring,False,1.8169,great phone fully functional with no issues.,True
ORD474602,ID0575434465,2019-09-20,Bakers,"[('Candle Inferno', 1), ('iStream', 1), ('Olivia x460', 2), ('Alcon 10', 1)]",11980,91.73,-37.8190467,144.9851874,0,12071.73,Spring,True,1.3399,terrible phone glitchy and malfunctioned constantly. speakers were worthless. my droid razr m was so much better than this phone. i had to return it and get a olivia universe s5.,False
ORD308283,ID5096779234,2019-05-25,Nickolson,"[('iAssist Line', 2), ('Alcon 10', 1), ('Toshika 750', 2)]",22040,83.97,-37.8009347,144.9698247,0,22123.97,Autumn,True,1.966,it is what it says worried about spending money on a phone on-line - but it is perfect- unqualified perfect. and no one paid me or discounted anything to get me to say this.,True
ORD365174,ID0660544730,2019-04-23,Bakers,"[('Thunder line', 1), ('Alcon 10', 2)]",20080,79.29,-37.816937,144.9898112,15,17147.29,Autumn,True,0.9079,so far so good. the phone is for my less than tech ... so far so good. the phone is for my less than tech savvy husband and he is managing well with this lucent. it has all the features he wants and can navigate thru.,True
ORD319256,ID0419481485,2019-01-09,Bakers,"[('Universe Note', 2), ('pearTV', 1)]",13210,94.93,-37.8187148,144.9970697,5,12644.43,Summer,True,0.9839,recommend great alcon service quick thanks highly recommend,True
ORD477927,ID0589487252,2019-07-29,Nickolson,"[('Thunder line', 2), ('iAssist Line', 2), ('Lucent 330S', 2)]",11270,62.04,-37.8200537,144.95831030000005,0,11332.04,Winter,True,1.0017,fraud alert the phone i recieved was on verizon's fraud list. do not buy.,False
ORD251261,ID0702375147,2019-01-29,Thompson,"[('Thunder line', 2), ('Candle Inferno', 2), ('Lucent 330S', 2)]",7680,76.79,-37.8071669,144.9425444,10,6988.79,Summer,True,0.7308,two stars phone has charge issue,False
ORD266504,ID0956512263,2019-08-21,Thompson,"[('Candle Inferno', 1), ('iAssist Line', 1), ('iStream', 1)]",2805,57.23,-37.8010339,144.9631536,25,2160.98,Winter,False,1.9183,total scam i bought the 64gb version and i got the 32gb!,False
ORD496953,ID0767730386,2019-02-02,Thompson,"[('Candle Inferno', 1), ('Olivia x460', 2)]",2880,92.92,-37.8056896,144.9460642,10,2684.92,Summer,True,0.7824,"i love this phone so much i love this phone so much! smooth interface, amazing low light camera, and for the price, this is an amazing deal! a definite buy!",True
ORD199305,ID6167357842,2019-10-01,Nickolson,"[('iAssist Line', 1), ('pearTV', 1), ('Lucent 330S', 2), ('Alcon 10', 1)]",19945,104.98,-37.807649,144.9713701,10,18055.48,Spring,True,1.2289,five stars good replacement,True
ORD072311,ID5797734218,2019-02-10,Thompson,"[('iStream', 1), ('Lucent 330S', 1)]",1380,72.44,-37.8036135,144.9484611,5,1383.44,Summer,False,1.0159,"great phone i love this phone, the camera is awesome, and the battery life is amazing, especially being refurbished. great purchase.",True
ORD248483,ID0588197212,2019-05-21,Nickolson,"[('Alcon 10', 1), ('Olivia x460', 1)]",10175,64.84,-37.8121119,144.97398169999997,5,9731.09,Autumn,False,0.8201,"good phone product was unlocked when received. works well. showed minor wear. screen chips easily when keys hit it, but i just placed a glass screen protector over the screen and put it in a case. i look forward to using this unlocked phone on straight talk service.",True
ORD198045,ID0030220442,2019-11-16,Thompson,"[('Lucent 330S', 1), ('Candle Inferno', 1), ('pearTV', 2), ('Alcon 10', 1)]",23230,79.24,-37.8043201,144.9421534,10,20986.24,Spring,False,1.0254,five stars a solid cheap phone for a backup,True
ORD390382,ID1492145825,2019-05-13,Thompson,"[('Lucent 330S', 2), ('Toshika 750', 1)]",6780,62.87,-37.81320460000001,144.95135269999997,0,6842.87,Autumn,True,0.3813,this product is no different than the inferno stick in my opinion it does have more memory and an option where you can add an sd card to it but other than that it is the same as a infernostick no reason to pay twice the money for this box,False
ORD069251,ID0710001474,2019-12-01,Thompson,"[('iStream', 1), ('Olivia x460', 2), ('Thunder line', 1), ('pearTV', 2)]",17400,47.825,-37.81399320000001,144.9361387,0,17447.825,Summer,True,0.9724,"best refurbished experience! thank you! very impressed with this seller. the phone is refurbished, but works like new. no cosmetic damage either. seller packages phone perfectly & includes official charger.",True
ORD344084,ID0710020423,2019-02-01,Thompson,"[('iStream', 1), ('Lucent 330S', 1), ('Thunder line', 2), ('Universe Note', 1)]",9190,71.48,-37.8156799,144.93828269999997,25,6963.98,Summer,False,0.842,five stars fantastic prices. and the good toys.,True
ORD173432,ID5080636820,2019-07-01,Nickolson,"[('Lucent 330S', 2), ('iAssist Line', 1)]",4685,54.47,-37.8070375,144.9764039,25,3568.22,Winter,False,1.4207,"not sure is buying refurbished is the way to go.... when on speaker phone, the person on the other end heard an thunder and when using skype, the call would connect and immediately disconnect.",False
ORD284294,ID0560987521,2019-06-09,Thompson,"[('Olivia x460', 1), ('pearTV', 1), ('Universe Note', 2)]",14435,51.48,-37.8216102,144.9439044,25,10877.73,Winter,False,1.033,a waste of money. never worked. a piece of junk. don’t buy it.,False
ORD267569,ID2672310963,2019-12-16,Bakers,"[('iStream', 1), ('Lucent 330S', 1), ('Toshika 750', 2)]",10020,74.08,-37.8029263,144.988022,15,8591.08,Summer,False,1.0107,"five stars great deal, and great specs.",True
ORD283533,ID4260590676,2019-03-18,Thompson,"[('Thunder line', 2), ('Candle Inferno', 2)]",5220,82.15,-37.798872,144.95438169999997,15,4519.15,Autumn,True,1.6655,is cheap amd a good phone very nice phone i like best than alcon,True
ORD023397,ID3146808067,2019-04-18,Bakers,"[('Alcon 10', 1), ('Universe Note', 2), ('iStream', 1)]",16000,64.82,-37.8147034,144.99022140000002,15,13664.82,Autumn,False,0.6847,saved money over new phone a bargain,True
ORD050032,ID0310728100,2019-03-22,Thompson,"[('Thunder line', 1), ('Toshika 750', 1), ('Universe Note', 2)]",13400,63.72,-37.813504,144.9376699,15,11453.72,Autumn,False,0.8317,great value from best buy. bought at christmas sale.,True
ORD327083,ID0248746940,2019-07-09,Bakers,"[('iAssist Line', 2), ('Candle Inferno', 1), ('Thunder line', 2)]",9240,67.49,-37.8232999,144.99315719999996,10,8383.49,Winter,False,1.4921,excellent phone loved the phone. excellent camera and screen. i didn't try the face recognition and i don't think i will but i won't take stars away for something i didn't try.,True
ORD013871,ID0709978340,2019-01-20,Thompson,"[('Candle Inferno', 1), ('iStream', 2)]",730,97.96,-37.8149198,144.9353227,10,754.96,Summer,True,1.0628,"works wonderfully, and we have had no problems using it ... bought this phone for my daughter and she loves it. works wonderfully, and we have had no problems using it with our t-mobile account.",True
ORD304018,ID0589700520,2019-01-25,Thompson,"[('pearTV', 1), ('Universe Note', 2), ('Lucent 330S', 2)]",15670,77.69,-37.821308,144.9542643,5,14964.19,Summer,False,1.1508,five stars works perfectly and delivered directly in the morning,True
ORD128733,ID0588236758,2019-05-11,Nickolson,"[('pearTV', 1), ('Candle Inferno', 2), ('Lucent 330S', 1), ('iStream', 2)]",8700,64.87,-37.811111,144.9733727,15,7459.87,Autumn,False,0.8983,"olivia s9 i ordered three of these phones and they all arrived in perfect shape, i could not be more pleased. thank you for the great service and experience.",True
ORD022693,ID0207078671,2019-04-11,Bakers,"[('Candle Inferno', 1), ('iStream', 2)]",730,84.56,-37.82437120000001,145.0159628,5,778.06,Autumn,True,2.4257,alcon 6s i didn’t like the fact that the phone didn’t come with earphones.,True
ORD408933,ID0060653731,2019-07-02,Thompson,"[('iStream', 2), ('pearTV', 2), ('Alcon 10', 1)]",21870,75.99,-37.8145317,144.9382023,25,16478.49,Winter,True,0.8067,excellent excellent,True
ORD002132,ID3106294625,2019-11-23,Thompson,"[('Lucent 330S', 2), ('Universe Note', 2)]",9360,66.15,-37.8062236,144.93236869999996,15,8022.15,Spring,False,1.4788,rather would have the inferno stick as it is smaller and cheaper. i feel as though it has the same features.,False
ORD049114,ID0634784174,2019-10-10,Thompson,"[('Universe Note', 1), ('Toshika 750', 2), ('Olivia x460', 2), ('Lucent 330S', 2)]",17000,100.81,-37.8161613,144.9390294,5,16250.81,Spring,True,0.8066,for the price this is a great works well the for the price display is hd love it,True
ORD138608,ID0579399006,2019-06-21,Nickolson,"[('Thunder line', 2), ('Lucent 330S', 2), ('Toshika 750', 2), ('pearTV', 2)]",28080,61.77,-37.81846029999999,144.97359640000005,10,25333.77,Winter,False,0.3561,very good it fits perfectly my needs.,True
ORD178493,ID1927197436,2019-07-01,Thompson,"[('iStream', 1), ('Olivia x460', 2)]",2600,78.31,-37.8031069,144.95105159999997,15,2288.31,Winter,True,1.121,i feel happy! excelente! everything is fine!,True
ORD001622,ID0591428485,2019-03-19,Nickolson,"[('Thunder line', 2), ('Universe Note', 2), ('Candle Inferno', 2), ('Lucent 330S', 2)]",14580,77.76,-37.81857670000001,144.9637102,15,12470.76,Autumn,True,0.5136,purchased the 8 inch inferno tablet during black friday and have been using it since. a great deal.,True
ORD489011,ID3094967065,2019-12-13,Thompson,"[('Alcon 10', 2), ('Toshika 750', 1)]",22220,78.97,-37.8019292,144.9367901,0,22298.97,Summer,False,1.4992,five stars nice phone,True
ORD243742,ID5680151853,2019-02-22,Nickolson,"[('Thunder line', 2), ('Toshika 750', 1), ('Lucent 330S', 2)]",11140,73.01,-37.8197841,144.9790342,15,9542.01,Summer,False,0.8443,"love the digico inferno hd tablet, easy to get around",True
ORD112796,ID4936954236,2019-04-29,Bakers,"[('Alcon 10', 1), ('iAssist Line', 2), ('Lucent 330S', 1)]",14630,79.76,-37.8065115,144.9842719,10,13246.76,Autumn,True,1.039,"this phone is great. only back of phone had a little knicks i'm a little afraid of posting yet, because after around 3 months, i've had phones that are reconditioned break on me. however, this phone is great. only back of phone had a little knicks.",True
ORD045142,ID0176693380,2019-12-10,Nickolson,"[('Lucent 330S', 1), ('Toshika 750', 1), ('Thunder line', 1), ('Alcon 10', 2)]",25630,81.9,-37.8106851,144.9624361,15,21867.4,Summer,True,1.0802,stolen the phone i received was stolen and is useless.,False
ORD344883,ID0387153067,2019-03-15,Thompson,"[('Toshika 750', 2), ('Lucent 330S', 2)]",11100,81.97,-37.8021045,144.9498601,0,11181.97,Autumn,True,1.2018,super the phone is great. i'm just not sure i need all this stuff. i don't understand the word minimum requirement for reviews. it makes no sense.,True
ORD495907,ID0580026120,2019-06-28,Thompson,"[('Olivia x460', 1), ('Lucent 330S', 1), ('Toshika 750', 1)]",6775,81.7,-37.8002524,144.9434681,0,6856.7,Winter,True,1.4185,awesome deal great deal for a really decent phone. bought this for my kids and it is easy for them to use and has the features you would expect from a smartphone at a fraction of the cost. highly recommend!,True
ORD245554,ID0541122872,2019-12-21,Bakers,"[('Thunder line', 2), ('iStream', 1), ('Olivia x460', 1), ('iAssist Line', 2)]",10185,40.34,-37.8027747,145.012641,10,9206.84,Summer,False,1.7293,"great seller, great item bought this over 6 months ago and still works great with my ford sync. best flip phone out there for the ford sync hands down. can do call waiting, works off current phone book numbers in phone.",True
ORD273626,ID6167191732,2019-12-09,Nickolson,"[('Olivia x460', 2), ('Toshika 750', 2), ('Universe Note', 2), ('iAssist Line', 1)]",20215,68.41,-37.8156133,144.9665224,25,15229.66,Summer,False,0.4256,"as described by seller perfect, exactly what i wanted",True
ORD079958,ID1492145802,2019-12-16,Thompson,"[('iAssist Line', 2), ('Alcon 10', 2), ('Universe Note', 2), ('Olivia x460', 2)]",31700,89.01,-37.8133401,144.95154440000005,25,23864.01,Summer,True,0.4005,five stars i love it but it was too small,True
ORD074922,ID6167344588,2019-05-13,Nickolson,"[('Thunder line', 2), ('pearTV', 2), ('Lucent 330S', 1)]",18210,63.81,-37.8140165,144.97161719999997,10,16452.81,Autumn,False,0.5411,"phone may be okay, but camera is janky i returned this phone immediately because i had it confused with the lucent g 4th generation phone. i would have kept it, but the camera was terrible. my xp flip phone took pictures that were better.",True
ORD387332,ID0202736642,2019-05-25,Thompson,"[('pearTV', 2), ('Lucent 330S', 1), ('Olivia x460', 2)]",16300,66.43,-37.8050924,144.9344702,10,14736.43,Autumn,True,1.3928,bad antenna! having trouble with the antenna! i have to return. it keeps telling me cellular network not available!,False
ORD028692,ID4520380507,2019-09-08,Thompson,"[('iStream', 2), ('pearTV', 1), ('Lucent 330S', 2), ('iAssist Line', 2)]",13520,43.115,-37.8116892,144.9564892,15,11535.115,Spring,True,0.8357,"not quite there. well this is a decent device, but kinda flimsy. google assistant doesn't work on voice command. tried to work around. phone call keeps on going back and forth among bluetooth and handset. laga sometimes. can't use sd card as internal. doesn't get oreo update. i mean if you have to settle go for lucentrola .",False
ORD290150,ID2442297416,2019-11-13,Thompson,"[('Candle Inferno', 2), ('Universe Note', 1)]",4310,60.99,-37.8174651,144.95200469999997,0,4370.99,Spring,False,0.6877,isn’t unlocked! couldn’t connect it to t-mobile as it is stated! very misleading!,False
ORD293767,ID0659636292,2019-05-25,Thompson,"[('Thunder line', 1), ('Alcon 10', 1)]",11130,66.19,-37.8175499,144.9554956,0,11196.19,Autumn,False,0.9186,works as expected cell phone was in great condition and works as expected.,True
ORD228195,ID0591432435,2019-08-23,Nickolson,"[('Lucent 330S', 1), ('Alcon 10', 2), ('Universe Note', 2)]",26030,75.44,-37.8187907,144.96542140000003,0,26105.44,Winter,True,0.3638,the note 9 is a powerhouse and a must for big phone lovers came in fast and is new as it stated great deal!,True
ORD406304,ID0294622370,2019-08-19,Nickolson,"[('Olivia x460', 1), ('iAssist Line', 2)]",5675,59.33,-37.8185757,144.9669905,10,5166.83,Winter,True,0.2252,"not a clean esn, under financial block by sprint cannot activate phone as it is locked by sprint due to financial obligation of previous owner!!!!! replacement phone was also blocked. 2 phones, 0 success.",False
ORD387901,ID0419481486,2019-02-21,Bakers,"[('Toshika 750', 2), ('Universe Note', 2), ('Candle Inferno', 1), ('Olivia x460', 2)]",18420,81.3,-37.8189582,144.99080930000005,5,17580.3,Summer,True,1.0708,the thunder works fine but then you get indundated with &#34;things to try&#34;. i am not a 10 year old that needs stimulus to tell me to do things. i found there is no way to turn this off except for .... turning off the screen. if i cannot find a suitable fix for this it goes back.,False
ORD185093,ID0310727779,2019-12-12,Thompson,"[('Universe Note', 1), ('Olivia x460', 1), ('iStream', 1), ('Alcon 10', 2)]",22725,74.37,-37.8119041,144.93608740000005,5,21663.12,Summer,False,0.9695,i recommend love it,True
ORD322464,ID3804564118,2019-10-07,Bakers,"[('Alcon 10', 1), ('Thunder line', 2), ('iStream', 2)]",13610,78.58,-37.8180035,144.99411030000005,0,13688.58,Spring,False,0.8968,i love this phone i have to say this phone works better than pear and olivia phones. it works very well and is an excellent price,True
ORD464505,ID4326586204,2019-06-20,Nickolson,"[('Thunder line', 2), ('Candle Inferno', 1), ('Olivia x460', 1)]",6015,97.68,-37.8132425,144.96269080000005,25,4608.93,Winter,False,0.8479,amazing phone great phone and a great price it does so much that i wouldn't even think about 10)10 would buy,True
ORD002981,ID0767724093,2019-09-15,Nickolson,"[('Thunder line', 2), ('Lucent 330S', 2), ('iAssist Line', 1)]",9045,67.71,-37.8046315,144.97239960000005,15,7755.96,Spring,False,1.5744,boo verizon no longer accepts this phone,False
ORD037286,ID0060096724,2019-10-08,Bakers,"[('Toshika 750', 2), ('Universe Note', 1), ('Lucent 330S', 1), ('Candle Inferno', 1)]",13750,81.58,-37.8186253,144.98592030000003,0,13831.58,Spring,False,1.2622,camera is the best love it. the camera is amazing!,True
ORD214130,ID3804564094,2019-12-25,Bakers,"[('Olivia x460', 2), ('iStream', 1), ('Lucent 330S', 1)]",3830,75.61,-37.8197666,144.9949336,25,2948.11,Summer,False,1.0879,"11 year old son still loves it... that's all that matters! it has all the features my personal olivia s7 edge has without the ""edge"" part... son loves it for all his cell needs and internet access... god buy!",True
ORD299424,ID2187972536,2019-04-02,Nickolson,"[('Toshika 750', 1), ('Lucent 330S', 2), ('pearTV', 1)]",13090,51.13,-37.8095956,144.96381430000002,15,11177.63,Autumn,False,1.1216,"no working anymore . only few days ok awful!!, i was using the alcon for less than 2 months and suddenly blackout during charging !!, no crash no nothing inadmisible!!!!",False
ORD280671,ID0709972143,2019-03-22,Thompson,"[('iStream', 1), ('iAssist Line', 2), ('Thunder line', 2), ('Universe Note', 2)]",15860,67.84,-37.8151896,144.9363179,15,13548.84,Autumn,False,0.9861,good product microphone is in a weird place.,True
ORD084774,ID5427911108,2019-12-08,Thompson,"[('Lucent 330S', 2), ('Alcon 10', 2)]",20360,83.77,-37.802094,144.9606107,0,20443.77,Summer,False,1.6749,great phone! great phone and perfect condition!,True
ORD379636,ID0781092815,2019-10-25,Thompson,"[('Candle Inferno', 1), ('Universe Note', 2)]",7330,79.81,-37.8022013,144.94160290000005,10,6676.81,Spring,False,1.2609,"thank you for tou help great phone, the shipping is very fast.",True
ORD288428,ID5406376908,2019-02-27,Thompson,"[('Alcon 10', 2), ('Olivia x460', 1), ('Universe Note', 1), ('Toshika 750', 1)]",26895,69.98,-37.7994897,144.963079,15,22930.73,Summer,False,2.0338,phone is refurbished and in my case probably the screen ... phone is refurbished and in my case probably the screen because i dropped once after 3 days of having it and screen shattered do not buy buy it new.,False
ORD325866,ID0053133025,2019-06-24,Thompson,"[('iAssist Line', 2), ('Lucent 330S', 1), ('Universe Note', 2)]",12580,54.91,-37.7999252,144.95364740000005,15,10747.91,Winter,False,1.5325,i need some answers as i am not at all pleased. i don't know what the hell is going on here. this is supposed to be a brand new phone why does it have verizon behind it and why does it have scratches. i need some answers as i am not at all pleased.,False
ORD387774,ID0844455131,2019-07-31,Thompson,"[('Universe Note', 1), ('Toshika 750', 1), ('Olivia x460', 2), ('pearTV', 1)]",16530,77.0,-37.8209827,144.9475878,5,15780.5,Winter,True,0.9261,bought 2 for each of our teenagers and they just love it... very cool reading features and zero buffering while watching istream.,True
ORD331961,ID0598401578,2019-01-31,Nickolson,"[('iAssist Line', 1), ('pearTV', 1), ('Lucent 330S', 1)]",9765,93.14,-37.8143353,144.9633931,15,8393.39,Summer,True,0.7198,great! its perfect for me! i just wish it came with headphones though,True
ORD230784,ID0076459561,2019-01-14,Thompson,"[('Candle Inferno', 2), ('iAssist Line', 1)]",3085,107.38,-37.7934454,144.9363949,25,2421.13,Summer,True,2.3372,cannot use playstore download app received my phone last week. everything is good. but the only problem is i cannot use playstore to download any apps. the downloading is pending forever. any solution?,True
ORD461489,ID2020813891,2019-10-23,Nickolson,"[('iStream', 1), ('Alcon 10', 2), ('Toshika 750', 2), ('pearTV', 2)]",39310,76.66,-37.8159398,144.9610629,10,35455.66,Spring,False,0.8028,five stars rec'd fast & works great.,True
ORD312192,ID1012054403,2019-04-13,Nickolson,"[('Toshika 750', 1), ('Thunder line', 2), ('Lucent 330S', 1)]",9910,34.515,-37.80704420000001,144.9630675,0,9944.515,Autumn,False,1.4066,good phone a bit over priced considering the year it came out but a great product.,True
ORD349884,ID4326586211,2019-07-06,Nickolson,"[('Universe Note', 1), ('Alcon 10', 1), ('Toshika 750', 2)]",21040,73.62,-37.8142658,144.9632001,5,20061.62,Winter,False,0.7377,"its cheap, but the you will notice the low screen resolution compared to ipad. app is somewhat limited unless you side load it.",False
ORD057451,ID5544289003,2019-06-16,Thompson,"[('Toshika 750', 2), ('Thunder line', 2), ('Olivia x460', 2)]",15450,72.67,-37.7995415,144.96344030000003,0,15522.67,Winter,False,2.0518,five stars good product would buy again,True
ORD022655,ID0611991915,2019-02-20,Thompson,"[('Thunder line', 2), ('pearTV', 1), ('Olivia x460', 2)]",13120,99.73,-37.802901,144.95502130000003,15,11251.73,Summer,True,1.2933,good deal works just fine,True
ORD139350,ID0207085518,2019-01-08,Bakers,"[('iStream', 1), ('Thunder line', 1), ('pearTV', 1), ('iAssist Line', 1)]",10865,85.49,-37.81068120000001,145.0122031,5,10407.24,Summer,True,1.4945,have problems with the phone not acting right want to return for another phone,False
ORD351949,ID4442505793,2019-03-08,Thompson,"[('pearTV', 1), ('Lucent 330S', 2), ('Toshika 750', 2)]",17410,67.69,-37.8246122,144.9528441,0,17477.69,Autumn,False,1.4227,about as nice as a flip phone can be. it arrived sooner than promised and appears new in all ways.,True
ORD081043,ID0317369537,2019-01-28,Thompson,"[('iAssist Line', 1), ('Universe Note', 1)]",5675,96.12,-37.8073136,144.9556261,25,4352.37,Summer,True,0.9604,cool perfect. high level than alcon,True
ORD349446,ID0367779672,2019-05-17,Nickolson,"[('Thunder line', 2), ('Lucent 330S', 1), ('iStream', 2), ('pearTV', 1)]",12200,63.22,-37.8246605,144.9694812,10,11043.22,Autumn,False,0.6752,four stars great,True
ORD164302,ID0301537543,2019-07-07,Thompson,"[('Thunder line', 2), ('pearTV', 2), ('iStream', 1), ('Candle Inferno', 2)]",17990,76.35,-37.8197772,144.9437517,0,18066.35,Winter,True,0.8429,so far so good. it has only been a week since i got the lucentrola droud. so far it's okay. only wished we had the product manual since i had an alcon previous to the droid.,True
ORD358218,ID0248746948,2019-09-14,Bakers,"[('Thunder line', 2), ('Toshika 750', 2)]",13000,82.26,-37.8225448,144.99168600000004,0,13082.26,Spring,False,1.4313,great phone like that it was in great shape and easy to transfer information from damaged phone to one ordered.,True
ORD492976,ID1271016045,2019-01-25,Thompson,"[('Candle Inferno', 1), ('iStream', 2), ('Thunder line', 1)]",2910,58.31,-37.8160013,144.9395197,5,2822.81,Summer,False,0.7603,"bad customer service. bad phone switched back to alcon from olivia. the biggest mistake. i spent three hours trying to get my old itunes password. they say it may take a week. well, that was a waste of money. olivia was so much easier to use. i only switched because of buy one get one and now i need to decide if the $100 restock is worth the pain.",False
ORD339127,ID1594632471,2019-05-25,Nickolson,"[('iStream', 2), ('Candle Inferno', 2), ('pearTV', 2), ('Olivia x460', 2)]",16230,79.81,-37.8205809,144.9791177,0,16309.81,Autumn,True,0.8698,"i have never owned a tablet. wanted an i-pad like most, but couldn't afford the sticker price. this one fit my needs perfect. i mainly just use it for web surfing and streaming video. no complaints so far! i would recommend this device.",True
ORD255333,ID0030221048,2019-01-14,Bakers,"[('pearTV', 1), ('Universe Note', 2), ('Alcon 10', 1), ('Lucent 330S', 1)]",23390,85.32,-37.8122155,145.01596730000003,15,19966.82,Summer,False,1.8402,five stars great phone. exceeded my expectations. best flip phone i have ever owned.,True
ORD137164,ID0233262793,2019-01-13,Bakers,"[('Lucent 330S', 1), ('Candle Inferno', 2)]",2090,103.57,-37.7999324,144.9793617,5,2089.07,Summer,True,1.7898,excelente compra muy buen celular. en este momento unos de los mejores en relacion precio calidad. super recomendable,True
ORD464635,ID0127588855,2019-05-29,Thompson,"[('Universe Note', 1), ('iStream', 2), ('iAssist Line', 1), ('Alcon 10', 1)]",14925,81.29,-37.79962379999999,144.9450559,0,15006.29,Autumn,True,1.4634,good buy! good phone for the price !,True
ORD232813,ID0579410990,2019-07-12,Nickolson,"[('Universe Note', 1), ('Lucent 330S', 2), ('Thunder line', 2), ('pearTV', 1)]",16580,62.74,-37.822508,144.9682768,15,14155.74,Winter,False,0.4498,perfect! works perfect. new phone and sealed box. it’s worth the purchase. comes with all the accessories and phone case,True
ORD382251,ID1463620359,2019-03-12,Bakers,"[('Olivia x460', 1), ('Thunder line', 1)]",3405,81.43,-37.8183131,144.9969154,15,2975.68,Autumn,True,0.9376,"best olivia phone ever amazing screen, battery life, s pen, fast charge i have this phone for 2 weeks just love it. olivia got it right get it & you will be happy",True
ORD423275,ID5172636087,2019-04-20,Bakers,"[('Universe Note', 2), ('Thunder line', 1), ('iAssist Line', 2)]",13530,49.73,-37.8109193,144.99705419999995,10,12226.73,Autumn,False,0.1904,i didn't get my product i'm mad,False
ORD376005,ID4716795598,2019-07-29,Thompson,"[('pearTV', 2), ('Universe Note', 2), ('Alcon 10', 2), ('Candle Inferno', 2)]",38280,65.24,-37.8186803,144.9531871,5,36431.24,Winter,False,0.8583,very good! very good!,True
ORD017123,ID3121590188,2019-05-14,Bakers,"[('Lucent 330S', 1), ('Toshika 750', 2), ('iStream', 2)]",10170,52.76,-37.798734,145.0002236,15,8697.26,Autumn,False,1.3283,"warning!!! don't buy !!! i waited a month for the phone.it wassent to the wrong address. the sound was not hairing, and the auxiliary did not work. send the phone back to china which again took a month. he promised to cover the transportation fee which did not pay off. i was deceived. i lost 46 $!",False
ORD463459,ID0591382595,2019-09-03,Nickolson,"[('Alcon 10', 1), ('iStream', 1), ('iAssist Line', 2), ('Toshika 750', 2)]",22190,71.98,-37.8174191,144.9655626,25,16714.48,Spring,False,0.3744,five stars perfect !,True
ORD252062,ID5002594927,2019-04-14,Thompson,"[('iAssist Line', 2), ('Thunder line', 1), ('Toshika 750', 1), ('Universe Note', 2)]",17850,64.84,-37.8123815,144.951989,25,13452.34,Autumn,False,0.4339,phone works fine now. after one month this phone quit receiving incoming calls. was ready to ship it back to digico. the walmart family plan gents played with this phone for two hours and still couldn't get it to receive calls. the problem was a damaged cell tower. phone works fine now.,True
ORD255641,ID4315295102,2019-05-10,Bakers,"[('Olivia x460', 1), ('Toshika 750', 1), ('Lucent 330S', 2)]",8005,63.3,-37.8160136,144.9919545,25,6067.05,Autumn,True,0.7292,this phone is not working i have tried to get the phone to accept the sim card. it is an unlocked phone. phone just keeps restarting and restarting. i have been trying to return it for a week now and no response. really disappointed.,False
ORD070302,ID2906505246,2019-06-18,Thompson,"[('Olivia x460', 2), ('iStream', 1), ('Lucent 330S', 2), ('Universe Note', 1)]",8510,73.35,-37.8096867,144.947529,25,6455.85,Winter,True,0.3349,good phone easy set up. delivered on time as promised.,True
ORD172717,ID1964023940,2019-10-10,Thompson,"[('Universe Note', 1), ('Alcon 10', 2)]",21350,50.835,-37.8190708,144.9526395,25,16063.335,Spring,True,0.8644,free again. love my new phone and freedom from whattsapp and facebook and all the other apps!,True
ORD318092,ID4884440915,2019-10-03,Thompson,"[('Candle Inferno', 2), ('iStream', 1), ('iAssist Line', 2)]",5460,109.91,-37.79987720000001,144.9350044,10,5023.91,Spring,True,1.7762,i love it! this phone is the absolute bomb!! i love it!! thank you!!!,True
ORD383946,ID2183290172,2019-05-18,Nickolson,"[('Olivia x460', 1), ('Thunder line', 1), ('Lucent 330S', 2)]",5865,82.19,-37.8073965,144.96284319999995,15,5067.44,Autumn,True,1.3791,"sd card stopped working very good phone. very fast and good battery, however the 64gb sd that came with it recently stopped working. almost lost all my data.",True
ORD230227,ID1449431544,2019-02-04,Nickolson,"[('iStream', 2), ('Toshika 750', 1), ('Lucent 330S', 1), ('Alcon 10', 2)]",23750,90.41,-37.8143103,144.97435080000002,10,21465.41,Summer,True,0.6369,"great for the price for the price, a great phone. nice screen, fast response, good camera.",True
ORD379582,ID2640745800,2019-12-28,Thompson,"[('Lucent 330S', 1), ('Universe Note', 1)]",4680,47.9,-37.8038433,144.9533741,0,4727.9,Summer,True,1.1286,muy original excelente .. tal como se describe,True
ORD289029,ID0130038870,2019-06-23,Thompson,"[('Olivia x460', 2), ('iAssist Line', 1), ('iStream', 1)]",4825,38.38,-37.806016,144.9400612,5,4622.13,Winter,True,0.9638,"show has been great. still learning what it can do, but being able to watch videos, talk face to face with others are not features.",True
ORD318720,ID0575434357,2019-10-31,Nickolson,"[('pearTV', 2), ('Toshika 750', 2), ('Lucent 330S', 1)]",22490,53.025,-37.8210659,144.9843399,0,22543.025,Spring,True,1.3292,"universe note 8 note 8 flawless! it looked brand new... no scratches or damage! works like a charm! i will purchase from this seller again as well as recommend their business. also, seller was super nice and professional! thanks!",True
ORD334148,ID2005895252,2019-11-27,Nickolson,"[('Candle Inferno', 2), ('Toshika 750', 1), ('iAssist Line', 1)]",7405,85.27,-37.8020899,144.96595459999998,25,5639.02,Spring,False,1.8643,great great phone for the price. i am impressed with all the features for such a low price,True
ORD071815,ID0529205091,2019-05-23,Thompson,"[('Candle Inferno', 1), ('iStream', 2)]",730,51.37,-37.8227442,144.9357663,10,708.37,Autumn,False,1.4982,cheap phone slow the phone was supposed to be made with gorilla glass i just dropped the phone broke it..false advertising,False
ORD145264,ID0041667993,2019-08-16,Thompson,"[('pearTV', 1), ('Candle Inferno', 2), ('Toshika 750', 2)]",15810,66.54,-37.8096741,144.9365179,25,11924.04,Winter,False,0.9861,love it. works great making my home a smarthome,True
ORD404324,ID0332797106,2019-10-17,Bakers,"[('Lucent 330S', 2), ('Olivia x460', 1), ('Toshika 750', 2), ('iStream', 2)]",12625,110.295,-37.80902329999999,144.9998185,15,10841.545,Spring,False,0.4176,five stars everything is good,True
ORD262537,ID1521014625,2019-09-21,Bakers,"[('Candle Inferno', 2), ('iAssist Line', 1)]",3085,76.76,-37.8025533,144.9927413,10,2853.26,Spring,False,0.857,five stars works great!,True
ORD026692,ID3171517001,2019-02-18,Thompson,"[('iAssist Line', 2), ('Olivia x460', 2), ('Alcon 10', 2)]",24800,79.63,-37.8038953,144.9617879,5,23639.63,Summer,False,1.6219,great phone get phone,True
ORD081665,ID5797758276,2019-07-07,Thompson,"[('Universe Note', 2), ('Thunder line', 2), ('Lucent 330S', 2)]",13720,64.08,-37.8067451,144.9450725,5,13098.08,Winter,False,0.6829,great phone for the price i upgraded from the honor 5x and i'm so very happy i chose this phone. you can't beat the price of this phone!! it's fast and the colors are beautiful. takes great pictures and videos too. buy it!!,True
ORD313274,ID4520380529,2019-07-07,Thompson,"[('iStream', 1), ('iAssist Line', 2), ('pearTV', 1)]",10910,67.64,-37.8156122,144.95829809999995,15,9341.14,Winter,False,1.0403,highly recommend currently using this phone. had it for about a month now and it’s really good.,True
ORD208663,ID0030942992,2019-11-03,Thompson,"[('Olivia x460', 1), ('Universe Note', 1), ('Thunder line', 2)]",9035,99.26,-37.8071832,144.950629,0,9134.26,Spring,True,0.6867,five stars great phone! value for money. you won't be disappointed.,True
ORD363587,ID0589504692,2019-09-07,Nickolson,"[('Olivia x460', 2), ('pearTV', 1)]",8760,79.02,-37.8202485,144.9573102,10,7963.02,Spring,False,1.092,"very useful device, once you put in the laptop it ... very useful device, once you put in the laptop it will work as modem , once you plug it to usb power or battery it will work as wifi router ,it has wifi password . highly recommended . country used : saudi arabia",True
ORD435890,ID0248969197,2019-06-14,Bakers,"[('Universe Note', 1), ('Alcon 10', 1), ('pearTV', 2), ('iStream', 2)]",25320,96.24,-37.7998186,144.9927729,0,25416.24,Winter,True,1.1534,"phone in decent condition, however the camera worked enough ... phone in decent condition, however the camera worked enough to take 5 pictures, then had errors initializing camera. i researched this error and the first link found was a virus attachment. i returned the phone and question the third party retailer.",False
ORD295204,ID3132397296,2019-05-17,Thompson,"[('iStream', 2), ('Alcon 10', 2), ('Thunder line', 2)]",22560,81.68,-37.8070988,144.9590073,0,22641.68,Autumn,True,1.2196,"great phone!!! this cellphone was a gift for my wife. although it took her a little while to get to understand the format, once she got it down she got hooked on the phone!!! happy, happy!!!",True
ORD427150,ID0583243026,2019-03-06,Nickolson,"[('pearTV', 1), ('Olivia x460', 1)]",7535,52.15,-37.8127348,144.97718490000003,15,6456.9,Autumn,False,0.9361,"we bought the tablet for work, but the only app we needed (free) never would download. after many tries and several hours, we gave up and took it back to the store.",False
ORD379904,ID0575391656,2019-12-04,Nickolson,"[('Toshika 750', 2), ('Universe Note', 2)]",15540,98.43,-37.8210436,144.9836908,5,14861.43,Summer,True,1.2729,good price. i bought it as a gift. hope my friend like it. it will be sent to nicaragua.,True
ORD426205,ID0846566997,2019-01-29,Nickolson,"[('iAssist Line', 2), ('iStream', 1), ('Lucent 330S', 2)]",7060,72.44,-37.8246134,144.9706436,15,6073.44,Summer,False,0.6768,best bang for your buck item as described. fast shipping. noticed the difference in performance comparing my old nexus 6p. very affordable price.,True
ORD204532,ID0247417829,2019-01-07,Nickolson,"[('Thunder line', 2), ('Candle Inferno', 1), ('Universe Note', 1)]",8240,99.555,-37.8177059,144.9691094,15,7103.555,Summer,False,0.1063,phone work great. just the right size all features are wonderful ... phone work great.just the right size all features are wonderful love it,True
ORD125144,ID1681675863,2019-08-23,Nickolson,"[('iStream', 2), ('Toshika 750', 2), ('Olivia x460', 2)]",11390,78.62,-37.809828,144.9764612,15,9760.12,Winter,True,1.1497,overall good phone besides camera in one of the phones the front camera doesn’t work,True
ORD409342,ID0248746703,2019-01-23,Bakers,"[('Candle Inferno', 2), ('Universe Note', 2)]",7760,88.09,-37.8137403,144.99537959999995,10,7072.09,Summer,True,0.417,four stars yes it did i've decided to keep it thank you,True
ORD144133,ID3212024915,2019-04-04,Thompson,"[('Candle Inferno', 2), ('Lucent 330S', 1)]",2090,63.12,-37.8083859,144.9477409,25,1630.62,Autumn,False,0.4809,while i loved iassist....this is a whole new level. love it. fun to watch movie trailers. weather is so much more complete. when you listen to music....the lyrics appear. still discovering all thunder show can do. highly recommend. takes iassist to a completely new world.,True
ORD290145,ID0054552170,2019-03-10,Nickolson,"[('Thunder line', 1), ('Alcon 10', 2), ('Universe Note', 2)]",26980,65.59,-37.8204292,144.98192319999995,0,27045.59,Autumn,False,1.1069,it's pretty fun and nice to have a speaker that responds to my questions but doesn't understand my commands some of the time.,True
ORD116895,ID2776394279,2019-11-09,Nickolson,"[('iAssist Line', 1), ('Universe Note', 2), ('iStream', 2), ('Alcon 10', 2)]",27325,50.885,-37.812029,144.9635865,15,23277.135,Spring,True,0.8996,five stars great phone. amazing display and love the platinum.,True
ORD025953,ID6200183479,2019-07-04,Thompson,"[('iAssist Line', 1), ('Universe Note', 2), ('Thunder line', 1)]",11305,63.74,-37.8205922,144.9522801,0,11368.74,Winter,False,0.9935,"great phone love the phone. works fine. i am having a little trouble with the home button not working all the time, but it's a small thing",True
ORD136758,ID1479897555,2019-09-10,Nickolson,"[('iAssist Line', 2), ('Toshika 750', 1)]",8770,61.71,-37.820064,144.9583151,10,7954.71,Spring,False,1.0015,"bad phone if i could put 0 stars, i would. very short battery life, had to charge 4 times in one day and barely used it. the volume control doesn’t work at all. this is the third phone i’ve purchased through this buyer, first two were great, third had to send back. also there was a burned spot in the screen. no problem on returning though.",False
ORD088199,ID0176668174,2019-09-18,Nickolson,"[('iAssist Line', 2), ('Toshika 750', 2), ('pearTV', 1)]",19400,62.35,-37.8126384,144.9647772,10,17522.35,Spring,False,0.7848,terrible for paying over 200 port is broken. had to buy a pad charger. cost 49.00. terrible for paying over 200.,False
ORD452189,ID0777840087,2019-06-04,Thompson,"[('pearTV', 1), ('Lucent 330S', 2), ('Alcon 10', 2), ('iAssist Line', 1)]",28895,83.0,-37.8018082,144.9568764,0,28978.0,Winter,True,1.4855,no complications i received the gold s7 three days ago and i am 100% satisfied. i noticed on a previous review someone had an issue with head phone capability. regular head phones do work with my phone. i have not had any complications! great phone! i am very pleased!,True
ORD339673,ID0317729738,2019-03-22,Thompson,"[('Candle Inferno', 2), ('iStream', 1), ('Olivia x460', 1), ('Lucent 330S', 2)]",4695,64.16,-37.8091283,144.9559019,10,4289.66,Autumn,False,0.8713,great device. works very well and use it throughout the day.keeps me informed and great for looking up things and staying in contact.,True
ORD046494,ID2190478922,2019-01-14,Nickolson,"[('pearTV', 2), ('Universe Note', 1)]",16070,55.12,-37.8161667,144.9639741,25,12107.62,Summer,False,0.56,"it was already messed up when i received it, ... it was already messed up when i received it, the volume button was compressed, making my volume go all the way down which in return i was missing all my calls and it kept taking pictures on it's own.",False
ORD296068,ID0710002029,2019-04-20,Thompson,"[('Olivia x460', 1), ('Candle Inferno', 1), ('pearTV', 2)]",14275,68.06,-37.8133476,144.93575019999997,25,10774.31,Autumn,False,0.9982,good phone phone is good if you just need a phone with none of the bells and whistles...would recommend it to friends and family.,True
ORD340924,ID0364850701,2019-09-26,Bakers,"[('Toshika 750', 2), ('Alcon 10', 2), ('Lucent 330S', 1)]",27770,91.43,-37.8055792,144.98131719999995,0,27861.43,Spring,True,1.3189,"not a good phone at all the phone it's good , but the battery it's a really big problem, i been using it for 4 months and in the first month the phone takes more than 6 hours to charge, i thought it was the charger and i bought another 2 and i still have the same problem, the same phone says it is charging slowly.",False
ORD021455,ID0031477183,2019-09-30,Bakers,"[('Alcon 10', 2), ('Olivia x460', 1), ('iStream', 2)]",19425,127.035,-37.8049735,145.0145436,0,19552.035,Spring,False,1.7881,five stars great phone works like a champ,True
ORD260798,ID5402876537,2019-10-02,Nickolson,"[('iAssist Line', 1), ('iStream', 1), ('Olivia x460', 2), ('Alcon 10', 1)]",13775,101.62,-37.8210658,144.9770455,15,11810.37,Spring,True,0.7141,five stars great phone! besides no root,True
ORD392559,ID0257506562,2019-08-20,Thompson,"[('Toshika 750', 1), ('Thunder line', 1)]",6500,69.85,-37.7997277,144.9630097,5,6244.85,Winter,True,2.0105,one star not as good as flip phone we have been using..,False
ORD275747,ID2325395493,2019-11-13,Thompson,"[('iStream', 2), ('Candle Inferno', 1), ('Olivia x460', 1)]",1955,90.91,-37.8084975,144.9589549,15,1752.66,Spring,True,1.144,one star do not buy this phone. it is a piece of ship. should not ever be sold again,False
ORD012125,ID1496842667,2019-05-20,Bakers,"[('Lucent 330S', 2), ('Alcon 10', 2)]",20360,83.36,-37.8252737,144.9886194,10,18407.36,Autumn,True,1.7973,using it right now! great phone...looks exactly like the seller said...perfect with few dings and light use.,True
ORD399267,ID0702363472,2019-08-14,Thompson,"[('Olivia x460', 1), ('Candle Inferno', 1), ('Universe Note', 1)]",5105,76.15,-37.8064414,144.9413287,10,4670.65,Winter,True,0.858,five stars great phone love it.,True
ORD115449,ID0055931054,2019-10-21,Thompson,"[('Thunder line', 1), ('pearTV', 2)]",14800,54.68,-37.8131806,144.9477548,10,13374.68,Spring,False,0.0826,charger is not compatible in us. charger is not compatible in us. i have to use my old charger for this phone.,False
ORD095878,ID0581729739,2019-04-17,Thompson,"[('Thunder line', 2), ('iAssist Line', 2), ('pearTV', 1), ('Toshika 750', 2)]",23760,72.48,-37.804736,144.9238514,25,17892.48,Autumn,False,2.2249,"wish it would have came with the lightbulb, but otherwise works great, fast delivery, and i enjoy using it!",True
ORD087639,ID0781083956,2019-10-18,Bakers,"[('Olivia x460', 2), ('iStream', 1), ('iAssist Line', 1), ('Lucent 330S', 2)]",7285,112.42,-37.823017,145.014163,10,6668.92,Spring,True,2.2073,excellent i'm very happy with my phone. battery life is good enough for a whole day.,True
ORD290374,ID6207096573,2019-06-21,Thompson,"[('Alcon 10', 1), ('pearTV', 1), ('Universe Note', 2), ('Olivia x460', 2)]",24610,60.34,-37.8139829,144.9546832,0,24670.34,Winter,True,0.6853,one star phone couldn’t be activated due to water damage.,False
ORD071634,ID4716795580,2019-04-10,Thompson,"[('iStream', 2), ('Olivia x460', 1), ('iAssist Line', 1), ('Thunder line', 2)]",8110,79.26,-37.8194809,144.9521545,15,6972.76,Autumn,True,0.8799,very good very good,True
ORD144326,ID0122752830,2019-11-27,Thompson,"[('Thunder line', 1), ('Toshika 750', 2), ('iAssist Line', 2)]",15270,58.0,-37.8147936,144.9417965,5,14564.5,Spring,False,0.5203,"hi, this cellphone come to me today in brazil ... hi, this cellphone come to me today in brazil and is blocked, and you say this is a gsm unlocked, i want to use a brazilian gsm and cant.",False
ORD373122,ID0248746735,2019-02-04,Bakers,"[('iStream', 2), ('Alcon 10', 2)]",18200,69.91,-37.8155739,144.9971507,15,15539.91,Summer,False,0.6434,finally! upgraded from universe note 3. so glad i did it's a beast!,True
ORD104891,ID0591435584,2019-01-02,Nickolson,"[('Olivia x460', 2), ('iStream', 2)]",2750,87.72,-37.8180715,144.9709101,25,2150.22,Summer,True,0.133,five stars great phone...i love the bigger size!! great sound...a great buy!!,True
ORD472290,ID3106293380,2019-01-24,Thompson,"[('Olivia x460', 1), ('Lucent 330S', 1)]",2455,78.85,-37.8065586,144.93250600000005,5,2411.1,Summer,False,1.4504,satisfied satisfied,True
ORD476400,ID0777783233,2019-12-31,Thompson,"[('iStream', 1), ('Candle Inferno', 1), ('Alcon 10', 1)]",9530,95.44,-37.8048535,144.95456090000005,5,9148.94,Summer,True,1.0917,cheap and very good best cellphone android at 200 dollar,True
ORD496978,ID3793626750,2019-07-14,Nickolson,"[('Toshika 750', 1), ('pearTV', 1)]",10630,66.11,-37.8230465,144.9779493,0,10696.11,Winter,False,0.8893,five stars nice device...,True
ORD487187,ID2190478926,2019-12-03,Nickolson,"[('Alcon 10', 2), ('Toshika 750', 2), ('iAssist Line', 2), ('iStream', 1)]",31140,107.64000000000001,-37.8141907,144.9630638,0,31247.64,Summer,False,0.7522,good tablet but not as smooth as high end tablets. it's limited to digico so don't expect to do as much as an android or ipad. i like mine and will continue to use it. i recommend using one if you can before buying.,True
ORD319426,ID4754200400,2019-10-26,Thompson,"[('Olivia x460', 2), ('Universe Note', 1), ('iAssist Line', 2)]",10350,109.32,-37.8163947,144.9285102,15,8906.82,Spring,True,1.6838,very happy im so happy with this purchase i hope a nice phone :d,True
ORD176283,ID0441031555,2019-07-06,Thompson,"[('Lucent 330S', 2), ('Candle Inferno', 1), ('pearTV', 1), ('Olivia x460', 2)]",11650,75.12,-37.8133588,144.9386603,10,10560.12,Winter,True,0.7434,"i couldn't be more pleased. i've only had this a few days so my opinion could change but so far i couldn't be more pleased. battery life is great! camera is great! the phone was in good condition when i received it. no complaints, so far.",True
ORD287984,ID2422392867,2019-06-10,Thompson,"[('Thunder line', 2), ('Alcon 10', 1), ('Olivia x460', 2), ('iStream', 1)]",15910,55.45,-37.8004965,144.9335284,15,13578.95,Winter,False,1.8043,one star it has already locked down and can not be fixed by verizon. had to buy new phone yesterday,False
ORD319006,ID0746912584,2019-05-04,Nickolson,"[('Thunder line', 2), ('iStream', 2), ('Toshika 750', 2), ('Universe Note', 1)]",16750,81.68,-37.8241714,144.9837984,10,15156.68,Autumn,True,1.3982,the best so for love it,True
ORD049078,ID5957906944,2019-01-25,Nickolson,"[('Olivia x460', 1), ('iStream', 2), ('pearTV', 1)]",7835,84.5,-37.8000517,144.9745569,25,5960.75,Summer,False,2.1106,bought for my wife for x-mas and she loves it. hasn't put it down,True
ORD388748,ID0579512456,2019-01-06,Thompson,"[('Candle Inferno', 1), ('Lucent 330S', 1)]",1660,65.11,-37.81392,144.9481385,15,1476.11,Summer,False,0.1677,i bought this on a whim because my brother recommended i try it sometimes. hard to believe how important this is in my life. this has opened up my long forgotten youth with music and videos anytime,True
ORD320491,ID0457365595,2019-06-15,Nickolson,"[('Universe Note', 2), ('iStream', 2), ('Lucent 330S', 1)]",8430,71.34,-37.8204229,144.9691189,15,7236.84,Winter,True,0.207,four stars awesome!,True
ORD247553,ID0595594367,2019-12-10,Thompson,"[('Lucent 330S', 2), ('Candle Inferno', 2), ('iStream', 1), ('pearTV', 1)]",9780,93.28,-37.8138576,144.95696730000003,15,8406.28,Summer,True,0.8804,amazing i fell in love with this phone when my friend bought it and showed it to me. i tried to make a photo at night and it was really good. everything worked smoothly and seamlessly. wp8 works fantastic. and now i am waiting for my own (expected tomorrow).,True
ORD237538,ID0767583225,2019-05-14,Nickolson,"[('Toshika 750', 2), ('pearTV', 2), ('Candle Inferno', 2), ('iAssist Line', 2)]",26570,79.53,-37.8090565,144.9719345,5,25321.03,Autumn,True,1.0823,"perfect bought it for my mom, she loves it.",True
ORD255754,ID0123330902,2019-02-02,Thompson,"[('Olivia x460', 2), ('Candle Inferno', 2), ('iStream', 2)]",3610,85.61,-37.7988976,144.93184509999998,25,2793.11,Summer,False,2.0357,four stars great phone came fast and in good condition i would recommend to a friend,True
ORD021535,ID2469584356,2019-04-16,Bakers,"[('Toshika 750', 1), ('Lucent 330S', 2)]",6780,64.55,-37.7998872,144.9878732,0,6844.55,Autumn,True,1.2981,two stars wouldn't even turn on when received. returned it for a refund - had no problems with the return.,False
ORD148587,ID3924911400,2019-04-24,Nickolson,"[('iStream', 2), ('Alcon 10', 2), ('Thunder line', 1)]",20380,66.94,-37.8126201,144.965171,5,19427.94,Autumn,False,0.7686,"great phone you get the basic functions for what a cell phone is needed for, in other words this phone is simple and effective.",True
ORD392106,ID6167441057,2019-07-16,Nickolson,"[('Lucent 330S', 2), ('Universe Note', 2)]",9360,63.96,-37.8131941,144.96276519999995,25,7083.96,Winter,False,0.8471,its a great price for a very good phone its a great price for a very good phone. i f you have not had a windows phone it may take a few days to get used to but once you do it functions really well.,True
ORD421553,ID4518640798,2019-03-27,Thompson,"[('Alcon 10', 2), ('Universe Note', 2), ('Toshika 750', 2)]",33440,62.62,-37.8076134,144.9424079,5,31830.62,Autumn,False,0.6966,great deal i consider this a better deal than the new note 10.,True
ORD275216,ID0519816212,2019-09-23,Thompson,"[('Lucent 330S', 2), ('Candle Inferno', 2)]",3320,109.13,-37.8275232,144.95117240000005,25,2599.13,Spring,True,1.692,very pleased with this purchase! the phone was packaged nicely and phone was in excellent condition. phone was gsm unlocked which made it very easy to set my service up on it (metropcs). only thing i didn’t like was it did not come with headphones. still 5 stars tho!,True
ORD159549,ID0363384252,2019-11-28,Thompson,"[('pearTV', 2), ('Olivia x460', 1), ('Candle Inferno', 1)]",14275,86.44,-37.7983149,144.96001619999996,10,12933.94,Spring,False,1.9625,five stars excellent,True
ORD429288,ID0250774471,2019-11-01,Bakers,"[('Olivia x460', 1), ('Lucent 330S', 1)]",2455,106.54,-37.8173474,145.008734,10,2316.04,Spring,True,1.4421,"awesome phone with quality. this phone is awesome. it's response very fast, both bluetooth and wifi work same time. it's a very good phone.",True
ORD160606,ID0591430822,2019-06-12,Nickolson,"[('Thunder line', 2), ('Candle Inferno', 2)]",5220,63.32,-37.81759210000001,144.9672221,10,4761.32,Winter,False,0.2332,five stars this phone was like brand new flawless no scratches or scuffs i thought it was brand new very pleased!!,True
ORD226320,ID4716795176,2019-08-01,Thompson,"[('Candle Inferno', 1), ('Olivia x460', 2), ('Toshika 750', 1)]",7200,76.71,-37.8188818,144.9531234,10,6556.71,Winter,True,0.8724,size i loved my new lucentrola g6 play dual sim card,True
ORD352342,ID0440057251,2019-12-28,Bakers,"[('Toshika 750', 2), ('iAssist Line', 2)]",13090,113.055,-37.8188668,144.9979072,0,13203.055,Summer,False,1.0151,"seem to be a great phone. lots of great features very fast, very colorful, seem to be a great phone. lots of great features. wasn't happy however with the screen pixelating and going dead exactly one month to the day of receiving it.",True
ORD286939,ID0781093174,2019-11-21,Bakers,"[('iAssist Line', 2), ('Toshika 750', 2), ('Lucent 330S', 1), ('Universe Note', 2)]",21220,107.03,-37.8136295,145.0128635,5,20266.03,Spring,True,1.6025,"good value good camera, fast processor, didn't have trouble adjusting to os",True
ORD342014,ID4716795683,2019-04-16,Thompson,"[('Lucent 330S', 1), ('iAssist Line', 2), ('Alcon 10', 1), ('Olivia x460', 2)]",17080,51.38,-37.8187501,144.9533484,10,15423.38,Autumn,False,0.8732,don’t waste your money don’t waste your money. phone stopped charging after 3 days,False
ORD242592,ID2621587187,2019-07-03,Bakers,"[('Olivia x460', 1), ('Candle Inferno', 2), ('Thunder line', 2), ('Lucent 330S', 2)]",8905,81.2,-37.8069839,145.0106199,25,6759.95,Winter,True,1.3943,"she hasn't used the it yet, but my son did a quick check and it seems just fine.",True
ORD471556,ID6167344558,2019-11-05,Nickolson,"[('Toshika 750', 2), ('pearTV', 2)]",21260,58.31,-37.8159325,144.97218769999995,5,20255.31,Spring,False,0.3763,"sell you one thing, give you something else. the phone in the picture is not the phone i received.",False
ORD290189,ID0241807190,2019-11-30,Bakers,"[('Universe Note', 2), ('Thunder line', 1), ('Candle Inferno', 1), ('Olivia x460', 2)]",11960,101.83,-37.8166221,144.9879502,10,10865.83,Spring,True,0.9768,"i am really enjoying the many different features on my iassist, especially listening to music and audio books",True
ORD217792,ID1459890792,2019-12-14,Bakers,"[('iStream', 1), ('Universe Note', 1), ('Candle Inferno', 1)]",4030,87.41,-37.8199156,145.0116616,0,4117.41,Summer,True,1.8185,"no service great phone if you don't mind having no signal and tons of dropped calls. the manual says to be careful not to cover the antenna while using, but it doesn't tell you where the antenna is! i'm sorry i bought this. it was a total waste of money.",False
ORD130861,ID0547586436,2019-05-11,Bakers,"[('Lucent 330S', 1), ('Alcon 10', 2)]",19130,66.76,-37.813942,144.98448080000003,25,14414.26,Autumn,False,1.0425,"just what i needed! my family and friends insist on texting; with my olivia edge 7, the screen was too small (or my fingers too big!). this has a stylus and the screen is bigger, so so far i definitely like it. got my supcase to protect it, and i am in good shape.",True
ORD205584,ID3131001766,2019-11-17,Bakers,"[('Lucent 330S', 1), ('Alcon 10', 1), ('Toshika 750', 1)]",14500,106.93,-37.8128227,145.0109342,10,13156.93,Spring,True,1.4163,slow processor i had a universe j7 2017 version. this phone does not compare! the processor is definitely much slower. it is a note 3/ means 2013 duhhh... so this is what you get when you purchase a phone that was manufactured in 2013. i still love olivia's though...,True
ORD236002,ID3589872333,2019-09-27,Thompson,"[('Alcon 10', 2), ('pearTV', 1), ('iAssist Line', 2), ('Thunder line', 2)]",33020,108.27,-37.8112338,144.9276275,15,28175.27,Spring,True,1.7172,good i like it,True
ORD014244,ID0589708344,2019-09-24,Thompson,"[('Toshika 750', 2), ('iAssist Line', 1), ('Thunder line', 2)]",15225,103.79,-37.8208189,144.9550615,0,15328.79,Spring,True,1.1473,four stars very good meet the expectations.,True
ORD301571,ID6167357841,2019-11-05,Nickolson,"[('pearTV', 1), ('iStream', 2)]",6610,105.26,-37.8076849,144.9713767,25,5062.76,Spring,True,1.225,she loves it! so far so good.,True
ORD151622,ID4716795698,2019-11-14,Thompson,"[('Toshika 750', 2), ('Lucent 330S', 1), ('iAssist Line', 1)]",12095,76.15,-37.8188444,144.9531886,15,10356.9,Spring,False,0.8727,five stars everything was great with this order. thank you,True
ORD487992,ID0579410795,2019-07-28,Nickolson,"[('Alcon 10', 2), ('Toshika 750', 2), ('iStream', 2)]",26840,62.7,-37.8221923,144.96805849999996,0,26902.7,Winter,False,0.4214,phone was much better than expected-appears to be brand new phone was much better than expected-appears to be brand new. cell ev inc delivered phone on time as promised. had no problem connecting to my pageplus account.,True
ORD018107,ID3218226984,2019-07-27,Thompson,"[('iAssist Line', 1), ('Lucent 330S', 1), ('pearTV', 2), ('Olivia x460', 2)]",18525,64.56,-37.8064485,144.9447076,10,16737.06,Winter,False,0.7234,"great phone. the screen is as big as i ... great phone. the screen is as big as i had expected. cameras are good too, and great performance so far.",True
ORD259461,ID0589402311,2019-12-16,Nickolson,"[('pearTV', 1), ('iStream', 1), ('Lucent 330S', 1), ('Olivia x460', 1)]",8915,94.2,-37.810034,144.9697155,5,8563.45,Summer,True,0.9531,"love the wireless charging enjoying the phone, love the wireless charging.",True
ORD348627,ID0257505382,2019-10-03,Thompson,"[('iAssist Line', 1), ('iStream', 1), ('Candle Inferno', 1)]",2805,110.33,-37.7989584,144.9631716,5,2775.08,Spring,True,2.0824,"phone in excellent condition, no problems connecting to service delivered on time. phone in excellent condition, no problems connecting to service. no issues currently, very satisfied.",True
ORD431493,ID0312718912,2019-06-28,Thompson,"[('iAssist Line', 1), ('Lucent 330S', 2)]",4685,57.13,-37.80196420000001,144.96212759999997,15,4039.38,Winter,False,1.7819,"it was locked i bought it as unlocked. however, it was locked.",False
ORD031055,ID0250774458,2019-07-12,Bakers,"[('Universe Note', 2), ('Toshika 750', 2), ('Thunder line', 1)]",17720,56.37,-37.8183864,145.0130674,15,15118.37,Winter,False,1.8255,not unlocked at all!!! phone was locked and it's an international phone. very poor product avoid.,False
ORD225856,ID0176736506,2019-04-23,Nickolson,"[('Universe Note', 1), ('Toshika 750', 2)]",12090,78.63,-37.81344110000001,144.9683085,10,10959.63,Autumn,True,0.584,gracias good,True
ORD075842,ID1560149605,2019-04-25,Thompson,"[('Universe Note', 2), ('Lucent 330S', 1), ('Thunder line', 2)]",12490,50.9,-37.8155045,144.9377081,25,9418.4,Autumn,False,0.8815,garbage buy olivia instead.,False
ORD114555,ID2383211233,2019-02-17,Nickolson,"[('Thunder line', 1), ('Olivia x460', 2), ('Toshika 750', 2), ('iStream', 1)]",13420,69.15,-37.8155331,144.9665099,0,13489.15,Summer,False,0.4332,five stars got it and looks just like a new phone. nothing wrong with it.,True
ORD025142,ID0577523828,2019-02-19,Nickolson,"[('Olivia x460', 2), ('Lucent 330S', 1)]",3680,73.81,-37.825137700000006,144.9755897,5,3569.81,Summer,False,0.9013,everything works fine and the phone is what i expected everything works fine and the phone is what i expected. im inlove with the s8 plus im soo happy with my phone.,True
ORD312575,ID0589424325,2019-06-28,Nickolson,"[('Toshika 750', 2), ('Thunder line', 2), ('Universe Note', 1), ('Candle Inferno', 1)]",16880,66.49,-37.8095512,144.9725868,5,16102.49,Winter,False,1.0415,"good product good alcon in much better condition than i expected. delivery took one day more than stated, but who cares? sheesh, it's only one day.",True
ORD007007,ID0780918185,2019-10-06,Thompson,"[('Olivia x460', 1), ('Lucent 330S', 1)]",2455,41.395,-37.8027121,144.95685790000005,15,2128.145,Spring,False,1.4038,"great condition came in quickly, great condition and unlocked. thank you!!!",True
ORD414292,ID3222703084,2019-12-18,Thompson,"[('pearTV', 2), ('Toshika 750', 1)]",16940,94.56,-37.802478,144.9448704,0,17034.56,Summer,True,1.1513,great phone for the money! better than pear because you have the freedom to use expandable storage and it is fast.,True
ORD169567,ID0373643807,2019-11-01,Thompson,"[('Lucent 330S', 2), ('Alcon 10', 2), ('Olivia x460', 2)]",22810,94.36,-37.8086589,144.9259279,0,22904.36,Spring,True,1.9122,very disappointed. after a month of purchasing the phone a vertical pink line appear on the screen. technical support doesn't want to help because is an unlock phone and is asking me to contact seller. very disappointed.,False
ORD024756,ID1449285243,2019-10-14,Nickolson,"[('Candle Inferno', 2), ('pearTV', 1), ('Olivia x460', 2), ('Toshika 750', 1)]",13940,78.06,-37.8161105,144.98260990000003,5,13321.06,Spring,False,1.1812,"two thumbs up 😄😄😄😄 i immediately fell in love with this phone. also, the shipping came faster than what i thought.",True
ORD011791,ID0576868764,2019-09-17,Bakers,"[('Alcon 10', 2), ('pearTV', 2)]",30520,92.35,-37.8239364,144.99017419999996,0,30612.35,Spring,True,1.6143,"faulty product!!! never buy oh god, very poor product and after 2 months, this phone is completely dead and not charging / working at all. digico and the company sold thru digico cheated me.. i lost $200 never ever buy this product. digico, i am a gold customer, can you do something for this faulty product, please help me here.",False
ORD320959,ID1880686094,2019-02-18,Thompson,"[('Candle Inferno', 1), ('Universe Note', 2)]",7330,77.59,-37.8026378,144.94546259999996,15,6308.09,Summer,False,1.126,works great i was kinda scared but digico's return police convinced me. 100% satisfied. the phone looked and acted new in every way.,True
ORD327920,ID0282825846,2019-03-11,Thompson,"[('Lucent 330S', 2), ('pearTV', 1), ('Candle Inferno', 2)]",9630,99.78,-37.8018337,144.9514251,25,7322.28,Autumn,False,1.266,price awesome just what it described,True
ORD067166,ID3212411894,2019-11-20,Thompson,"[('Candle Inferno', 2), ('iStream', 2)]",1160,100.3,-37.8065015,144.9453062,5,1202.3,Spring,True,0.7043,works perfect!! thrilled with this purchase exactly what i was looking for!! works perfect!! thrilled with this purchase!,True
ORD450689,ID1224856500,2019-06-24,Thompson,"[('Lucent 330S', 1), ('iAssist Line', 1), ('Thunder line', 1)]",5635,62.89,-37.8134231,144.9412206,10,5134.39,Winter,False,0.521,five stars perfect!!,True
ORD290708,ID0294620418,2019-02-11,Nickolson,"[('Candle Inferno', 1), ('Olivia x460', 2), ('iStream', 2), ('iAssist Line', 1)]",5405,72.05,-37.8189898,144.963902,5,5206.8,Summer,False,0.4987,i love the size and portability of this. keeps me in touch and having fun.,True
ORD045004,ID0060096789,2019-08-06,Bakers,"[('Candle Inferno', 2), ('Thunder line', 2), ('Olivia x460', 2)]",7670,80.03,-37.8190949,144.986234,10,6983.03,Winter,True,1.2853,"quality i needed a brand new phone and this one is perfect, very satified.",True
ORD341021,ID4520380521,2019-05-18,Thompson,"[('Alcon 10', 2), ('Olivia x460', 1), ('Thunder line', 1)]",21305,79.47,-37.8116934,144.95657340000002,5,20319.22,Autumn,True,0.8429,"i bought this for my wife, this is her third digico inferno tablet. she mostly uses it for reading but she really likes the speed and the additional features on this one. she's very happy with it",True
ORD184644,ID3793626750,2019-01-24,Nickolson,"[('iStream', 2), ('pearTV', 1)]",6610,71.95,-37.8230465,144.9779493,10,6020.95,Summer,False,0.8893,great phone it was not factory unlock as the description said,True
ORD174957,ID6167191156,2019-12-06,Nickolson,"[('iAssist Line', 2), ('Thunder line', 2), ('Alcon 10', 1)]",17760,88.83,-37.8146902,144.9688726,25,13408.83,Summer,True,0.4387,"almost new! the ipad works well, battery life is great, so it appears they truly replaced it, and no scratches on the screen. there is an etched out spot where it appears there had been engraving, but it's covered by my case anyway. very happy with this purchase.",True
ORD241103,ID0577522504,2019-01-24,Nickolson,"[('iAssist Line', 1), ('pearTV', 1), ('Candle Inferno', 2)]",9395,44.395,-37.821689,144.972462,10,8499.895,Summer,True,0.4291,love!,True
ORD448807,ID4315295099,2019-06-08,Bakers,"[('Thunder line', 2), ('Lucent 330S', 2), ('Candle Inferno', 2), ('Olivia x460', 1)]",8905,65.36,-37.8174059,144.9907682,25,6744.11,Winter,False,0.9135,"great phone although this was floor model, there were no visible scratches and appears exactly as the description of 'like new'. so far it's also worked perfect so i'm extremely sarisfied.",True
ORD237335,ID4655086240,2019-08-23,Thompson,"[('pearTV', 2), ('Alcon 10', 1), ('Candle Inferno', 2), ('Universe Note', 2)]",29330,60.16,-37.8109126,144.9457174,25,22057.66,Winter,False,0.2292,not paying much for all that you get great phone. definitely getting a lot for the price you pay. fast processor. can have multiple windows open/minimized when doing more than one thing. camera is awesome along with audio. battery life is impressive.,True
ORD136383,ID0247020726,2019-09-02,Nickolson,"[('Toshika 750', 2), ('Universe Note', 2)]",15540,58.89,-37.8129108,144.96909330000003,15,13267.89,Spring,False,0.634,battery is terrible battery would not last a full day without charging.. great phone on graphics but slow processor on looking at everything,False
ORD457369,ID2325395502,2019-03-18,Nickolson,"[('Lucent 330S', 2), ('Universe Note', 1)]",5910,78.33,-37.8190083,144.9618741,10,5397.33,Autumn,True,0.6766,great buy yes everything was perfect the phone works great,True
ORD174996,ID4353912831,2019-08-01,Bakers,"[('Olivia x460', 2), ('Thunder line', 1), ('Candle Inferno', 1)]",5060,43.235,-37.8241111,145.0125402,10,4597.235,Winter,True,2.1876,"good it,s what i wanted",True
ORD360110,ID2005895269,2019-06-01,Nickolson,"[('Olivia x460', 1), ('iStream', 1), ('iAssist Line', 1), ('Candle Inferno', 2)]",4460,81.0,-37.8034006,144.96572969999997,25,3426.0,Winter,True,1.7245,four stars ok,True
ORD315009,ID0127643363,2019-07-13,Thompson,"[('Universe Note', 1), ('Olivia x460', 2), ('Thunder line', 1), ('Toshika 750', 2)]",16720,75.79,-37.8095722,144.94438069999995,15,14287.79,Winter,True,0.4184,"aaa+++ great deal exactly as described and arrived super fast!!!! excellent communication & highly recommended would do business with again, thank you",True
ORD086520,ID0233314999,2019-05-28,Bakers,"[('Toshika 750', 1), ('pearTV', 1), ('Lucent 330S', 1)]",11860,68.01,-37.80408720000001,144.9774972,5,11335.01,Autumn,False,1.6928,it's a good phone it's really a good budget phone and it works with t-mobile,True
ORD129166,ID0781137275,2019-01-19,Thompson,"[('Universe Note', 1), ('Thunder line', 2)]",7810,76.2,-37.8028334,144.9479479,5,7495.7,Summer,False,1.0981,"one of the best phones very good phone, picture is very clear, even for shooting the moon at night. blue tooth works fine for me.",True
ORD224241,ID3945799028,2019-04-02,Thompson,"[('iStream', 1), ('Olivia x460', 2)]",2600,64.32,-37.819053,144.9542591,25,2014.32,Autumn,False,0.9509,"rugged phone a good phone, that is very rugged",True
ORD409311,ID3144992692,2019-10-03,Bakers,"[('Candle Inferno', 2), ('Alcon 10', 2)]",18760,78.74,-37.8149608,144.9862468,0,18838.74,Spring,False,0.9643,"i lived really loved the price but battery is too old, i think but i'm happy old battery, i wish i could get a new one with refurbished phone, had i known i would gotten one",True
ORD466423,ID2859255484,2019-06-20,Bakers,"[('Thunder line', 1), ('pearTV', 2), ('Lucent 330S', 2)]",17260,62.76,-37.8072074,144.9889321,15,14733.76,Winter,False,0.6351,"works great really good conditions almost like new, loved it im more than happy with it",True
ORD145715,ID3146808078,2019-03-16,Bakers,"[('Thunder line', 2), ('Universe Note', 1), ('Lucent 330S', 2), ('Toshika 750', 2)]",18910,64.02,-37.8121287,144.98769840000003,5,18028.52,Autumn,False,0.7038,excellent ratio quality price. lightweight. good resolution and easy to use.,True
ORD050556,ID0248746694,2019-10-11,Bakers,"[('iAssist Line', 2), ('Toshika 750', 2), ('iStream', 1), ('Thunder line', 1)]",15420,59.17,-37.8139845,144.9925554,25,11624.17,Spring,False,0.5025,scam dont buy this was a waste of money phone does not work on any network its a scam to buy as there is no warranty,False
ORD086395,ID0598399384,2019-01-23,Nickolson,"[('Universe Note', 2), ('pearTV', 2)]",19520,71.83,-37.8139282,144.9654051,5,18615.83,Summer,False,0.6347,phone love the phone,True
ORD387002,ID6167236669,2019-01-26,Nickolson,"[('Alcon 10', 2), ('iAssist Line', 2)]",22350,95.31,-37.8100262,144.9695131,0,22445.31,Summer,True,0.9539,"works beautifully, excellent sound.",True
ORD034886,ID2417805512,2019-11-07,Thompson,"[('iStream', 2), ('Lucent 330S', 2)]",2760,99.82,-37.8082703,144.9535925,15,2445.82,Spring,True,0.7546,esto es calidad-precio muy buen celular y me llegó en perfectas condiciones,True
ORD046061,ID0248260958,2019-11-03,Thompson,"[('Olivia x460', 1), ('Thunder line', 2), ('Candle Inferno', 2)]",6445,84.74,-37.7993304,144.95971809999998,15,5562.99,Spring,False,1.8557,almost as good as my bose. love the whole house music.,True
ORD053738,ID2185303494,2019-12-29,Thompson,"[('iStream', 1), ('Alcon 10', 1), ('Olivia x460', 1), ('pearTV', 1)]",16635,71.21,-37.8103422,144.9550359,25,12547.46,Summer,False,0.7472,four stars its good as new!!,True
ORD012931,ID6167344586,2019-04-07,Nickolson,"[('iAssist Line', 1), ('pearTV', 2), ('Lucent 330S', 2)]",17305,78.4,-37.8141203,144.9716676,10,15652.9,Autumn,True,0.5318,five stars this is the best android phone ever!!! i love it! see my full review of him here: http://newesc.com/pt/review-olivia-s6-edge-preco-caracteristicas-portugal/,True
ORD381367,ID0628174360,2019-09-14,Thompson,"[('Alcon 10', 1), ('Olivia x460', 2), ('Universe Note', 2), ('iStream', 1)]",18450,71.3,-37.81251320000001,144.9478139,15,15753.8,Spring,False,0.0679,renewed like new excellent like new condition!,True
ORD476310,ID0420022663,2019-12-29,Bakers,"[('iAssist Line', 1), ('pearTV', 2)]",14845,65.84,-37.8111942,144.99903769999997,25,11199.59,Summer,False,0.3603,"it's a super hi-tech high-value phone i'm saying goodbye to lg product and olivia universe note i love this phone came brand new,it beats the universe note and is super fast,camera is incredible",True
ORD196132,ID4326586192,2019-07-22,Nickolson,"[('Candle Inferno', 1), ('Thunder line', 1)]",2610,66.69,-37.8103246,144.961283,5,2546.19,Winter,False,1.1731,this product is easy to use and take along with you,True
ORD111471,ID6167417956,2019-11-13,Nickolson,"[('Thunder line', 2), ('Olivia x460', 1)]",5585,99.98,-37.8134476,144.9656069,25,4288.73,Spring,True,0.6698,five stars good product!,True
ORD274832,ID0575552040,2019-04-05,Nickolson,"[('Candle Inferno', 2), ('pearTV', 2), ('Alcon 10', 1)]",22430,69.03,-37.8263493,144.9857044,15,19134.53,Autumn,False,1.6621,the phone is very lightweight and beautiful i have asus phone since zenfone 2 and this one is the best of all. it's screen is big and the phone is smaller and lighter than zenfone 4.,True
ORD012292,ID4735688191,2019-04-11,Thompson,"[('Olivia x460', 1), ('Toshika 750', 1), ('Lucent 330S', 1), ('Thunder line', 2)]",11135,66.07,-37.8033927,144.9492205,5,10644.32,Autumn,False,1.0503,"droid turbo rocks fast shipment, good prize. device very good and the battery is excellent. if you use smartphone like a ""mobile office"" this is a device to have.",True
ORD419604,ID0257506017,2019-04-05,Thompson,"[('iAssist Line', 1), ('Universe Note', 1), ('Alcon 10', 1)]",14625,83.18,-37.799130700000006,144.9634187,5,13976.93,Autumn,True,2.0834,five stars perfect for photo,True
ORD369791,ID0443302589,2019-10-09,Bakers,"[('Candle Inferno', 2), ('Universe Note', 2)]",7760,102.57,-37.812562,145.00492450000004,25,5922.57,Spring,True,0.899,love it love everything about it.,True
ORD298937,ID4740822045,2019-11-28,Thompson,"[('Lucent 330S', 1), ('iStream', 1)]",1380,102.76,-37.8039285,144.94962880000003,25,1137.76,Spring,True,0.9991,"black skin alligator it's a great looking, startrek phone like alligator skin.",True
ORD008398,ID0257503480,2019-10-09,Thompson,"[('Olivia x460', 2), ('Alcon 10', 2), ('iStream', 2)]",20650,111.57,-37.799838,144.9622065,5,19729.07,Spring,True,1.9529,amazing device! awesome phone!!! great buy!!,True
ORD020726,ID2481930755,2019-11-17,Bakers,"[('Candle Inferno', 2), ('Lucent 330S', 1), ('iAssist Line', 1), ('Olivia x460', 1)]",5540,102.4,-37.8115594,145.0063953,15,4811.4,Spring,True,0.9971,great service! great product! a couple of anomalies during setup but happy now.,True
ORD177063,ID0710013215,2019-04-21,Thompson,"[('iAssist Line', 2), ('Thunder line', 2), ('Olivia x460', 2), ('Toshika 750', 2)]",19900,66.07,-37.81535750000001,144.936667,5,18971.07,Autumn,False,0.9623,everything perfect awesome,True
ORD453990,ID0775942455,2019-08-29,Thompson,"[('Lucent 330S', 2), ('iAssist Line', 2), ('pearTV', 2), ('iStream', 2)]",19830,34.61,-37.8067581,144.9610755,15,16890.11,Winter,False,1.3968,"battery life could be better though given the size bigger than i thought at 6 inch. looks gigantic next to an alcon 6plus. battery life could be better though given the size, pricewise ain't too bad but like i said some areas could be improved.",True
ORD103509,ID0589504692,2019-07-16,Nickolson,"[('Toshika 750', 2), ('Lucent 330S', 2), ('Olivia x460', 1)]",12325,67.5,-37.8202485,144.9573102,5,11776.25,Winter,False,1.092,five stars the phone works wonderful for me,True
ORD293646,ID0122752830,2019-05-02,Thompson,"[('iAssist Line', 2), ('iStream', 1)]",4600,76.99,-37.8147936,144.9417965,0,4676.99,Autumn,True,0.5203,"loved it and had it for a long time until ... loved it and had it for a long time until verizon wouldn't give me good service. i was persuaded to change, otherwise i would've kept it forever.",True
ORD459806,ID4735688218,2019-07-14,Thompson,"[('iAssist Line', 1), ('Lucent 330S', 1)]",3455,114.69,-37.8038797,144.9493368,5,3396.94,Winter,True,0.999,fantastic phone works flawlessly! my only complain is that the charger it came with doesn't work. can you please replace this?,True
ORD344533,ID0781093319,2019-05-24,Thompson,"[('Olivia x460', 1), ('iAssist Line', 2), ('iStream', 1), ('Thunder line', 2)]",10185,65.27,-37.8030255,144.94885580000005,5,9741.02,Autumn,False,1.0854,"my universe s4 it is so much more than a ""cell phone""! i love all the features, and am still learning them. i recomend it highly!!!!!!!",True
ORD334298,ID1095506175,2019-09-29,Bakers,"[('Alcon 10', 2), ('iAssist Line', 2), ('Thunder line', 2)]",26710,104.7,-37.8008798,144.98576819999997,10,24143.7,Spring,True,1.3125,best budget phone. best phone i ever had. for $150 its a steal. great pictures and videos also battery life is good. very thin and light.,True
ORD494332,ID0702478012,2019-01-29,Thompson,"[('Alcon 10', 1), ('Universe Note', 1), ('pearTV', 2)]",25020,73.32,-37.8046849,144.9446115,25,18838.32,Summer,False,0.9151,"... ""olivia gusto 3 prepaid no contract phone i really enjoy using this small compacted phone this ""olivia gusto 3 prepaid no contract phone i really enjoy using this small compacted phone. it is easy to hold while talking on the phone.",True
ORD065973,ID0163642967,2019-07-06,Nickolson,"[('Olivia x460', 1), ('Candle Inferno', 2), ('Lucent 330S', 2), ('iAssist Line', 2)]",8995,72.31,-37.8187388,144.970932,5,8617.56,Winter,True,0.1225,good value for the cell phone this one looks brand new. works great,True
ORD397844,ID0356097878,2019-05-22,Bakers,"[('Candle Inferno', 1), ('Thunder line', 2), ('Lucent 330S', 2), ('Alcon 10', 2)]",25150,97.545,-37.8204451,144.9911925,15,21475.045,Autumn,True,1.2162,one star the cellphone was brake!,False
ORD483904,ID1899315556,2019-11-19,Thompson,"[('Toshika 750', 1), ('Lucent 330S', 2)]",6780,106.52,-37.82313,144.93784,10,6208.52,Spring,True,1.419,love this thing works great and kids love it to,True
ORD188316,ID0580187133,2019-06-11,Thompson,"[('iAssist Line', 1), ('iStream', 2)]",2525,74.59,-37.8001237,144.92888430000005,0,2599.59,Winter,False,2.1235,great price love the new phone the screen much bigger then my old one great price and even came a lot sooner then expected,True
ORD437440,ID6167191693,2019-07-22,Thompson,"[('Universe Note', 2), ('iStream', 1), ('Toshika 750', 2)]",15690,66.4,-37.8187726,144.95489009999997,15,13402.9,Winter,False,0.9665,this was a gift from my wife. i wanted a lighter candle and this is it. i have been happy with this new version.,True
ORD204641,ID0575434354,2019-04-06,Nickolson,"[('Alcon 10', 1), ('Universe Note', 2), ('Thunder line', 2), ('iAssist Line', 1)]",22435,100.245,-37.8211316,144.9841749,5,21413.495,Autumn,False,1.3166,"it just works! it just works. it is fast and flawless. the screen is just the right size, not to big, not too small. call quality is great. no complaints about this phone.",True
ORD390535,ID0560989599,2019-01-26,Thompson,"[('iStream', 1), ('Lucent 330S', 1), ('Olivia x460', 1), ('Candle Inferno', 2)]",3465,58.98,-37.8209928,144.94744369999995,10,3177.48,Summer,False,0.9267,because it was phased out by at&t problem: phone was phased out by at&t so i couldn't even use it or buy sim card or anything for it! at&t should inform sellers!!,False
ORD109935,ID4716795504,2019-12-09,Thompson,"[('Universe Note', 1), ('Olivia x460', 2)]",5900,72.04,-37.81742670000001,144.9526395,0,5972.04,Summer,False,0.7211,good seller. everything ok! good seller...,True
ORD020885,ID0641025398,2019-01-24,Thompson,"[('pearTV', 1), ('Lucent 330S', 1), ('Toshika 750', 1)]",11860,70.14,-37.8109721,144.94358830000004,10,10744.14,Summer,False,0.3599,"happy camper great phone, no problems. so far so good",True
ORD050094,ID1517193200,2019-03-31,Nickolson,"[('Toshika 750', 2), ('Olivia x460', 2), ('pearTV', 2)]",23710,66.21,-37.8159335,144.98259030000003,0,23776.21,Autumn,False,1.1843,bought this for my 5 year old son. he navigates through apps and sites easily. the built in wifi is helpful for car rides. parental controls blocks him from buying every download he finds attractive. we're still trying to figure out how to get iassist to audio respond.,True
ORD003195,ID0741702116,2019-07-17,Nickolson,"[('Thunder line', 1), ('iAssist Line', 1)]",4405,62.37,-37.816059,144.9721774,5,4247.12,Winter,False,0.3647,"five stars still a fun old school phone, still has that click open cache.",True
ORD330126,ID1459448708,2019-05-22,Bakers,"[('Alcon 10', 2), ('iStream', 1), ('iAssist Line', 1)]",20275,53.26,-37.819504,145.0081017,10,18300.76,Autumn,False,1.5495,horrible design worse smart phone ever had,False
ORD306958,ID0248746938,2019-11-13,Bakers,"[('Candle Inferno', 1), ('Lucent 330S', 2), ('Thunder line', 2), ('iStream', 1)]",7400,66.12,-37.8224899,144.99328730000005,0,7466.12,Spring,False,1.4012,avoid screen went out after 3 days. returned and ordered a new one. same issue. had a full refund.,False
ORD068513,ID0711333523,2019-01-07,Thompson,"[('Candle Inferno', 1), ('Universe Note', 2), ('Alcon 10', 2)]",25230,76.01,-37.8065507,144.9581026,15,21521.51,Summer,False,1.1858,five stars minor scratches but works perfectly,True
ORD275683,ID1492350748,2019-06-02,Thompson,"[('Olivia x460', 2), ('iAssist Line', 2)]",6900,70.65,-37.8019874,144.9637507,15,5935.65,Winter,False,1.8888,"it functions properly in my country. i activated my phone on april 18, 2019 and has been using it since. i am satisfied with the performance so far.",True
ORD116215,ID2177115301,2019-01-30,Thompson,"[('Candle Inferno', 1), ('Lucent 330S', 2), ('Universe Note', 2)]",9790,93.03,-37.8166103,144.9547935,15,8414.53,Summer,True,0.8084,pretty good it's great for the value. it gets a bit hot but after the first time i turned it on it never happened again. i'll update this if anything happens but for now it's pretty good.,True
ORD333257,ID0581790267,2019-09-30,Thompson,"[('Lucent 330S', 1), ('Alcon 10', 1)]",10180,167.925,-37.804485,144.9266743,10,9329.925,Spring,True,2.012,"good phone,good price!!! good phone.",True
ORD217945,ID0814526577,2019-12-05,Thompson,"[('Alcon 10', 1), ('iAssist Line', 1), ('Universe Note', 2)]",18075,75.87,-37.8116738,144.95853300000005,5,17247.12,Summer,False,1.0143,"one of the best smart phone no words , one of the best smart phone, i recommend this than the alcon s8s",True
ORD054191,ID2653377676,2019-04-29,Thompson,"[('iAssist Line', 1), ('Lucent 330S', 2), ('Thunder line', 2), ('pearTV', 2)]",21665,83.31,-37.8013928,144.95817419999997,25,16332.06,Autumn,True,1.5908,"great phone i am still getting to know what this phone is capable of doing, but so far i love it!! i really like the ease of the keyboard. i love the large captions at the top. it is pretty easy to transition into after using a droid for 3 years!!",True
ORD331288,ID0324235287,2019-07-02,Nickolson,"[('Lucent 330S', 2), ('Olivia x460', 2), ('iStream', 2)]",5210,85.18,-37.7984619,144.965953,0,5295.18,Winter,True,2.2634,"pretty good my only complaint is group text messages: not all messages go through and some received messages need to be downloaded. never had this problem with my other olivia devices. the picture quality is acceptable, volume is good, and brightness is great. good product for the price.",True
ORD017040,ID2977758612,2019-10-10,Bakers,"[('Toshika 750', 2), ('Universe Note', 2), ('Candle Inferno', 2), ('iAssist Line', 2)]",20850,109.48,-37.82462460000001,144.98885249999995,25,15746.98,Spring,True,1.7223,five stars amazing,True
ORD088218,ID0711333491,2019-12-22,Thompson,"[('iStream', 1), ('pearTV', 1)]",6460,96.22,-37.806536,144.9579815,15,5587.22,Summer,True,1.178,go for it. like new very good price.,True
ORD472033,ID0635499737,2019-11-20,Thompson,"[('iStream', 2), ('Olivia x460', 2), ('Universe Note', 1)]",6200,86.7,-37.8153397,144.940552,10,5666.7,Spring,True,0.6454,"keeps freezing an every time it updates it freezes an ... keeps freezing an every time it updates it freezes an have shut it down,the charger that came with it don't even charge the phone, sorry to say but going back alcon,",False
ORD089849,ID4462665105,2019-08-22,Thompson,"[('pearTV', 1), ('Universe Note', 1)]",9760,82.18,-37.80467879999999,144.96133799999996,10,8866.18,Winter,True,1.5384,it's an all around nice phone small memory,True
ORD430336,ID3804564098,2019-04-13,Bakers,"[('Thunder line', 1), ('iStream', 1), ('Lucent 330S', 1)]",3560,65.09,-37.8205705,144.9956122,10,3269.09,Autumn,False,1.1776,good great,True
ORD097515,ID3144992722,2019-10-16,Bakers,"[('Thunder line', 2), ('Candle Inferno', 2), ('Alcon 10', 2), ('pearTV', 1)]",29430,103.23,-37.8132804,144.984748,5,28061.73,Spring,True,0.9918,this tablet has the best battery ive ever seen. the picture is great too.,True
ORD383077,ID0767665001,2019-09-26,Nickolson,"[('iAssist Line', 1), ('Lucent 330S', 2)]",4685,52.795,-37.8079659,144.9733709,15,4035.045,Spring,True,1.23,"excellent basic phone even in 2019 i got this as a backup. it’s a good basic phone, compared to my alcon 8 in all honesty this phone does everything i really need from the phone.",True
ORD310043,ID3215192037,2019-12-03,Thompson,"[('Candle Inferno', 2), ('Toshika 750', 1)]",5180,71.13,-37.8084183,144.9470989,25,3956.13,Summer,False,0.4737,"great phones, extremely smooth user experience great phones, extremely smooth user experience. way much better than the other android flagships if you are a software-oriented guy.",True
ORD406955,ID2005895255,2019-05-18,Nickolson,"[('Thunder line', 1), ('Lucent 330S', 1), ('Candle Inferno', 2), ('Toshika 750', 2)]",12910,53.8,-37.802124600000006,144.9659489,0,12963.8,Autumn,False,1.8606,"good phone, got scammed on my purchase by this seller. screen was defective. best phone i had in my life. got stolen, tried to replaced it from digico. the phone from this seller had a purple vertical line on the screen (bad screen contact?). felt scammed. gifted it and got the s8... still missing the s7 edge though.",False
ORD061274,ID0575524495,2019-01-09,Nickolson,"[('Universe Note', 2), ('Candle Inferno', 1)]",7330,75.65,-37.8198073,144.9810554,25,5573.15,Summer,False,1.0206,"wouldn’t buy again works, but loses battery super quick. will go from 80% to 4% in minutes. husband ran over his with a lawn mower and we needed a quick replacement.",True
ORD035898,ID0579478046,2019-02-08,Thompson,"[('iAssist Line', 2), ('iStream', 2), ('Lucent 330S', 1)]",5980,74.09,-37.8206586,144.9539071,25,4559.09,Summer,False,1.0732,highly recommended the price is right and great product quality,True
ORD089216,ID0289597248,2019-01-22,Thompson,"[('iStream', 1), ('Lucent 330S', 2), ('pearTV', 1), ('Olivia x460', 2)]",11370,69.78,-37.8104848,144.95242969999995,10,10302.78,Summer,False,0.5307,"so far so good for the price it's worth it. it has no issue with t-mobile, and 64 gb is a lot storage. miui is different. 1.if you not gonna spend time, you not going to like the miui. 2. i do not like the adapter came with the brick. it comes off the wall easily.",True
ORD373113,ID2096319051,2019-04-24,Nickolson,"[('pearTV', 2), ('Lucent 330S', 1)]",13850,67.16,-37.8083585,144.9753826,5,13224.66,Autumn,False,1.2496,reliable supplier delivered as projected . works great.,True
ORD216581,ID5402876214,2019-01-13,Nickolson,"[('Alcon 10', 1), ('iStream', 2), ('Candle Inferno', 2)]",10110,94.34,-37.8211636,144.9781181,5,9698.84,Summer,True,0.8058,"very satisfying purchase ! i bought this i phone 6s for my wife as a replacement phone. the price is fair and the delivery was fast. i also got it with screen protectors and a rubber case. i feel like it was a great value and most importantly, my wife loves it !",True
ORD249158,ID5002594999,2019-12-06,Thompson,"[('Universe Note', 2), ('Lucent 330S', 1), ('Thunder line', 2)]",12490,54.4,-37.8126326,144.9518304,15,10670.9,Summer,False,0.4188,"bad battery! had issues charging from day 1, by day 12 it no longer charges at all. so far return/exchange not as easy as they tell you...still going through that process, sigh. also, phone was not as nice as expected but i'm just putting in a case so who cares but just so u know it will have scuffs n scratches.",False
ORD380744,ID0589419728,2019-01-18,Nickolson,"[('Alcon 10', 1), ('Candle Inferno', 2), ('Thunder line', 2)]",14170,93.82,-37.8094949,144.9726843,15,12138.32,Summer,True,1.0498,very good phone and service good,True
ORD320477,ID0709970607,2019-01-01,Thompson,"[('Universe Note', 2), ('iStream', 2), ('Lucent 330S', 2)]",9660,81.76,-37.8153543,144.9355892,5,9258.76,Summer,True,1.0527,bad seller came with wrong charger and phone was very very dirty not satisfied,False
ORD231171,ID0714724462,2019-02-09,Nickolson,"[('Candle Inferno', 1), ('iStream', 2)]",730,94.2,-37.8111501,144.9622637,5,787.7,Summer,True,1.0476,i love it i like this phone,True
ORD476142,ID1053540536,2019-08-21,Bakers,"[('Toshika 750', 2), ('pearTV', 1)]",14950,82.42,-37.80418510000001,145.0108945,15,12789.92,Winter,True,1.5218,it's wonderful the best,True
ORD477336,ID0581715888,2019-09-30,Thompson,"[('iStream', 1), ('Toshika 750', 2), ('Candle Inferno', 2)]",9650,81.34,-37.8051279,144.9305831,25,7318.84,Spring,False,1.6756,so good like,True
ORD207018,ID3146808102,2019-02-13,Nickolson,"[('iStream', 1), ('Universe Note', 1)]",3600,97.1,-37.8099078,144.97957680000005,15,3157.1,Summer,True,1.3086,et phone home i think i got what i paid for the phone doesn't move as fast as i would like maybe it needs to be debugged or whatever it's fine for what i'm using it for which is work that's what i get for buying an older phone next time i'll buy them the up-to-date from,True
ORD099921,ID5424203832,2019-12-25,Nickolson,"[('iStream', 2), ('Olivia x460', 1), ('Lucent 330S', 2), ('Candle Inferno', 2)]",4845,93.0,-37.8224409,144.979516,10,4453.5,Summer,True,0.9752,it was a good buy for when the had them on sale. i use it as my travel tablet,True
ORD024332,ID0703556752,2019-04-17,Thompson,"[('Candle Inferno', 2), ('Toshika 750', 1), ('Thunder line', 2), ('Olivia x460', 2)]",11990,64.09,-37.8065349,144.95608049999996,15,10255.59,Autumn,True,1.0464,two phones both were defective i bought one of these phones and returned it because the volume for phone calls was very low and hearing the other person was almost impossible. i tried another one and it’s battery health was 65% and the connection with the charger was not secure so that if you moved it it would stop charging.,False
ORD495084,ID0777775780,2019-03-30,Thompson,"[('Toshika 750', 1), ('Alcon 10', 2), ('iStream', 1)]",22370,65.35,-37.8048995,144.9508758,25,16842.85,Autumn,False,0.9279,five stars very useful and easy to use. seems to be in very good condition. like new. a great value,True
ORD317674,ID0370242327,2019-09-15,Nickolson,"[('iStream', 2), ('Toshika 750', 1), ('iAssist Line', 1), ('pearTV', 2)]",19465,113.11,-37.8000639,144.9720473,15,16658.36,Spring,True,2.0745,phone great little phone for the money,True
ORD360757,ID3218293553,2019-05-15,Thompson,"[('Universe Note', 1), ('iStream', 2), ('Alcon 10', 1)]",12700,50.5,-37.8053055,144.9541523,25,9575.5,Autumn,False,1.0299,one star charger port went out a couple days after the product arrived,False
ORD440538,ID4157118505,2019-03-06,Bakers,"[('Alcon 10', 1), ('Candle Inferno', 2), ('Toshika 750', 1)]",14130,83.81,-37.8256734,144.99790269999997,10,12800.81,Autumn,True,1.7609,ok. everything was ok with this seller. reccomended.,True
ORD308809,ID0206204611,2019-11-28,Thompson,"[('Universe Note', 2), ('Alcon 10', 1)]",15850,111.0,-37.8154839,144.9282243,10,14376.0,Spring,True,1.6865,great price and extremely fast shipping brand new in box as described. great price and extremely fast shipping.,True
ORD158712,ID2168114074,2019-05-07,Nickolson,"[('Universe Note', 1), ('Olivia x460', 1), ('Candle Inferno', 2)]",5535,79.12,-37.8083298,144.9764632,10,5060.62,Autumn,True,1.2943,me gustó el diseño funciona perfecto,True
ORD047000,ID0241807392,2019-08-24,Bakers,"[('Universe Note', 2), ('Toshika 750', 2), ('Lucent 330S', 2), ('Alcon 10', 2)]",35900,65.47,-37.8142131,144.9854751,5,34170.47,Winter,False,0.9781,"this is the best iassist enabled device you can get, it is so versatile and useful. it sound way better than the line but not as good as the regular thunder. the screen makes all the difference in the world.",True
ORD293964,ID3161949470,2019-05-30,Thompson,"[('Olivia x460', 1), ('Thunder line', 2)]",5585,64.12,-37.808112,144.9567149,0,5649.12,Autumn,True,0.9887,faulty device came with audio ic not working speaker option grayed out seller refuses to give refund,False
ORD223625,ID2383211201,2019-04-14,Nickolson,"[('Universe Note', 1), ('iStream', 2), ('Lucent 330S', 2)]",6210,31.735,-37.809549,144.9638737,5,5931.235,Autumn,True,1.124,"muy mal tengo problemas con ese pedido, necesito la factura porque lo tienen retenido en miami",False
ORD267340,ID2288769492,2019-11-30,Bakers,"[('Alcon 10', 1), ('Olivia x460', 2)]",11400,80.97,-37.802331,145.0036807,0,11480.97,Spring,False,1.1315,"good cellphone good cellphone, but the battery life is very small.",True
ORD406515,ID2658548177,2019-07-12,Thompson,"[('Toshika 750', 1), ('iStream', 2)]",4620,69.93,-37.8036661,144.9630279,15,3996.93,Winter,False,1.7249,four stars awesome phone so easy to use with lots of power,True
ORD382101,ID0457365602,2019-10-12,Nickolson,"[('Olivia x460', 1), ('pearTV', 2), ('Thunder line', 1)]",16025,81.62,-37.82026060000001,144.96954430000005,0,16106.62,Spring,True,0.1854,"fallas recurrentes de software es buen equipo pero presenta fallas en el software, la pantalla queda inutilizable obligando a restaurar el equipo de fábrica. por lo general lo barato sale caro.",False
ORD494911,ID1889762121,2019-07-30,Bakers,"[('Alcon 10', 1), ('iAssist Line', 2), ('Lucent 330S', 2)]",15860,86.43,-37.83429,144.99659,5,15153.43,Winter,True,2.707,pleasant surprise. excellent phone. in brand new condition..works beautifully...no complaints what so ever...a great experience all around...also received it super fast...i highly recommend this phone and this seller.,True
ORD165549,ID6167489372,2019-10-11,Thompson,"[('Thunder line', 2), ('Candle Inferno', 2), ('pearTV', 2)]",17840,104.06,-37.8120455,144.9577553,0,17944.06,Spring,True,0.9424,five stars love this phone. came as advertised,True
ORD293018,ID3213448175,2019-10-17,Thompson,"[('Lucent 330S', 2), ('Thunder line', 2), ('Candle Inferno', 2)]",7680,105.59,-37.8085707,144.9612186,10,7017.59,Spring,True,1.3255,was looking for an inexpensive tablet for our child. got this while on sale and ordered a screen protector and child case. has worked well. can set daily limits to prevent them from using to much. would buy again.,True
ORD043065,ID0493873180,2019-09-18,Nickolson,"[('Candle Inferno', 2), ('Toshika 750', 1)]",5180,69.25,-37.804956,144.9696091,0,5249.25,Spring,False,1.5183,"if getting a good deal is difficult because of condition, it's a waste. buy new period nice phone with no battery",False
ORD491483,ID6131957206,2019-12-23,Nickolson,"[('iStream', 1), ('Universe Note', 2), ('Candle Inferno', 1)]",7480,99.33,-37.825737200000006,144.98201830000005,10,6831.33,Summer,True,1.3542,five stars gorgeous,True
ORD435472,ID0664379340,2019-03-05,Nickolson,"[('Thunder line', 1), ('pearTV', 2), ('Toshika 750', 2)]",23440,64.03,-37.8205013,144.9656908,5,22332.03,Autumn,False,0.4003,it is s great tool helping with information.,True
ORD049288,ID0283334276,2019-02-13,Thompson,"[('iStream', 2), ('Candle Inferno', 2), ('Universe Note', 1), ('Thunder line', 1)]",6790,78.13,-37.8007309,144.9530295,15,5849.63,Summer,False,1.429,easy to read. light in weight. has many good features.,True
ORD212569,ID2583477001,2019-08-09,Bakers,"[('Alcon 10', 2), ('Universe Note', 1)]",21350,72.97,-37.8105096,144.9898214,0,21422.97,Winter,True,0.4793,four stars very impressed with this product thus far!,True
ORD472862,ID6167417973,2019-11-29,Nickolson,"[('Toshika 750', 2), ('iAssist Line', 2), ('pearTV', 1)]",19400,100.36,-37.8126652,144.9687843,25,14650.36,Spring,True,0.6635,worth the money just got my phone and i'm loving it totally recommend this phone.,True
ORD433706,ID0710034740,2019-12-09,Thompson,"[('Thunder line', 1), ('Toshika 750', 2)]",10820,94.05,-37.8148527,144.93765349999995,15,9291.05,Summer,True,0.8628,great price to extend the range and super value to line offers. hooked up wireless speaker to use working outside.this line made outdoor sound range possible without disturbing indoor light control possible,True
ORD436204,ID2249575583,2019-11-08,Bakers,"[('Lucent 330S', 2), ('Alcon 10', 1), ('Thunder line', 1)]",13590,108.71,-37.8256584,144.9979053,0,13698.71,Spring,True,1.7593,i bought this as a christmas gift for my son. very easy to use.,True
ORD286119,ID0030240831,2019-01-20,Thompson,"[('Candle Inferno', 2), ('iAssist Line', 1), ('Universe Note', 2)]",9985,85.24,-37.8007885,144.9570861,25,7573.99,Summer,True,1.5895,not an unlocked phone advertised as unlocked but when i tried to activate it i was unable to because the phone was not unlocked and still registered as an at&t phone,False
ORD431750,ID0247533381,2019-05-05,Thompson,"[('iAssist Line', 1), ('Universe Note', 1)]",5675,24.33,-37.8181049,144.9495904,0,5699.33,Autumn,False,0.644,item was not what i expected it had more scratches ... item was not what i expected it had more scratches than what said then when i receive the phone it work.,False
ORD144127,ID0358732438,2019-01-16,Nickolson,"[('Olivia x460', 1), ('Candle Inferno', 1)]",1655,98.88,-37.81919179999999,144.9847408,5,1671.13,Summer,True,1.3374,bought for my older grandparent to help with reminders. would recommend to anyone with someone in their life with dementia or memory loss. helps my grandmother remember to take medications and do daily task. she loves it because she can listen to music and ask questions,True
ORD157168,ID5636123529,2019-03-06,Bakers,"[('Toshika 750', 1), ('iStream', 2), ('Alcon 10', 1), ('Universe Note', 2)]",20470,52.81,-37.8167868,145.00725880000005,10,18475.81,Autumn,False,1.3,"an obvious 'rip-off"" phones lasted only a few days each; back light out, difficulty in charging. waste of money, time & effort. do not recommend.",False
ORD372091,ID4315827361,2019-05-07,Bakers,"[('iStream', 2), ('Candle Inferno', 2)]",1160,115.005,-37.810602,145.00082680000003,10,1159.005,Autumn,True,0.4966,nice basically a new looking phone at a discount,True
ORD497239,ID0301549275,2019-12-07,Bakers,"[('iStream', 1), ('iAssist Line', 1), ('Alcon 10', 2)]",20275,78.82,-37.8020069,144.98375009999995,0,20353.82,Summer,False,1.3456,she loves it! i bought this for my wife she loves it replacing her s5. the only issue is that she says that she can't add calls to existing calls.,True
ORD061823,ID0356127514,2019-01-08,Bakers,"[('pearTV', 2), ('iStream', 1)]",12770,76.69,-37.8178009,144.98875969999997,25,9654.19,Summer,False,1.0387,five stars works great,True
ORD237924,ID0054396941,2019-06-02,Thompson,"[('Toshika 750', 2), ('Alcon 10', 1), ('Thunder line', 2), ('iAssist Line', 1)]",24175,69.94,-37.8000242,144.94871630000003,0,24244.94,Winter,False,1.4155,five stars good phone. its being used overseas in south america.,True
ORD106807,ID1463547099,2019-02-11,Bakers,"[('Toshika 750', 1), ('Alcon 10', 1), ('Thunder line', 2)]",17630,97.16,-37.8187328,145.0038814,15,15082.66,Summer,True,1.2347,five stars great phone easy to use it,True
ORD109934,ID6167231024,2019-11-26,Thompson,"[('iAssist Line', 1), ('Thunder line', 2), ('Universe Note', 1), ('Olivia x460', 2)]",12485,101.12,-37.8145328,144.9549349,10,11337.62,Spring,True,0.7221,five stars great product. came exactly as promised.,True
